     2.01           OBSERVATION DATA    G                   RINEX VERSION / TYPE
Gnsser              GeoSolution         20180624 181014 UTC PGM / RUN BY / DATE
Built by Gnsser. www.gnsser.com, gnsser@163.com             COMMENT
Gnsser, a GNSS data processing software, created in China   COMMENT
Linux 2.4.20-8|Pentium IV|gcc -static|Linux|486/DX+         COMMENT
BIT 2 OF LLI FLAGS DATA COLLECTED UNDER A/S CONDITION       COMMENT
RINEXED from Javad JPS-binary: ken.macleod@nrcan.gc.ca      COMMENT
Forced Modulo Decimation to 30 seconds                      COMMENT
This data is subject to the Open Government Licence -Canada COMMENT
http://open.canada.ca/en/open-government-licence-canada     COMMENT
SNR is mapped to RINEX snr flag value [0-9]                 COMMENT
L1 & L2: min(max(int(snr_dBHz/6), 0), 9)                    COMMENT
pseudorange smoothing corrections not applied               COMMENT
ALGO                                                        MARKER NAME
40104M002                                                   MARKER NUMBER
NRCan/GEODETIC SURVEY OF CANADA                             OBSERVER / AGENCY
01882               JAVAD TRE_G3TH DELTA3.6.3 Jul,01,2015   REC # / TYPE / VERS
303                 AOAD/M_T        NONE                    ANT # / TYPE
   918129.4000 -4346071.2000  4561977.8000                  APPROX POSITION XYZ
        0.1000        0.0000        0.0000                  ANTENNA: DELTA H/E/N
     5    L1    L2    C1    P2    P1                        # / TYPES OF OBSERV
    30.000                                                  INTERVAL
  2018     1     1     0     0    0.0000000                 TIME OF FIRST OBS
  2018     1     1    23    59   30.0000000                 TIME OF LAST OBS
    18                                                      LEAP SECONDS
                                                            END OF HEADER
 18 01 01 00 00 00.0000000  0 10G08G07G21G03G16G27G23G09G31G26       0.000000000
 127105626.94646  99043338.54446  24187394.069    24187397.979    24187393.440  
 130366616.19347 101584344.90246  24807934.744    24807933.298    24807933.438  
 134909200.74546 105124060.83942  25672366.613    25672365.477    25672365.439  
 131660180.18046 102592338.85646  25054095.030    25054097.648    25054094.440  
 105236691.12448  82002631.79147  20025869.203    20025868.772    20025868.570  
 114095025.95648  88905219.63648  21711557.103    21711559.970    21711556.336  
 109119757.40048  85028386.61447  20764790.338    20764788.236    20764790.002  
 114563297.27948  89270104.56548  21800665.961    21800668.498    21800665.824  
 126689324.05947  98718914.46047  24108156.938    24108156.198    24108156.436  
 112984070.33048  88039516.75548  21500137.445    21500140.322    21500136.774  
 18 01 01 00 00 30.0000000  0 10G08G07G21G03G16G27G23G09G31G26       0.000000000
 126990610.71646  98953715.56347  24165507.314    24165512.033    24165506.795  
 130274522.74347 101512583.81046  24790407.637    24790409.099    24790407.598  
 134871902.67246 105094997.40042  25665269.278    25665269.285    25665268.212  
 131755879.17045 102666909.46146  25072304.972    25072309.392    25072304.678  
 105255442.25548  82017243.07047  20029437.349    20029436.952    20029436.710  
 114010193.00148  88839116.07548  21695413.251    21695416.516    21695413.249  
 109115273.86948  85024892.94647  20763937.397    20763935.185    20763936.752  
 114500126.74148  89220880.77348  21788645.099    21788647.393    21788644.746  
 126777517.85747  98787636.85947  24124939.093    24124939.603    24124939.414  
 113053198.98748  88093383.23948  21513291.940    21513295.146    21513291.522  
 18 01 01 00 01 00.0000000  0 10G08G07G21G03G16G27G23G09G31G26       0.000000000
 126875664.43446  98864147.09046  24143634.122    24143637.179    24143633.236  
 130182415.71847 101440812.16446  24772881.334    24772880.812    24772880.479  
 134834927.06746 105066185.26742  25658233.882    25658231.626    25658231.603  
 131851562.22845 102741467.71246  25090511.405    25090516.687    25090512.878  
 105274685.52048  82032237.82247  20033099.222    20033098.837    20033098.415  
 113925783.25248  88773342.27948  21679351.660    21679354.094    21679350.889  
 109111374.80848  85021854.71047  20763195.398    20763193.201    20763194.916  
 114437420.69248  89172018.91748  21776712.757    21776714.729    21776712.199  
 126865807.93847  98856434.26747  24141740.134    24141740.591    24141740.386  
 113122602.71048  88147464.06248  21526498.693    21526502.313    21526498.616  
 18 01 01 00 01 30.0000000  0 10G08G07G21G03G16G27G23G09G31G26       0.000000000
 126760790.68146  98774635.07647  24121773.577    24121778.114    24121772.781  
 130090296.10047 101369030.67746  24755352.225    24755352.437    24755352.133  
 134798274.88146 105037625.20642  25651257.228    25651257.513    25651256.670  
 131947226.51946 102816011.27446  25108718.498    25108720.467    25108716.844  
 105294419.09648  82047614.64047  20036854.609    20036854.055    20036853.711  
 113841799.46748  88707900.39148  21663369.420    21663372.395    21663369.230  
 109108060.44048  85019272.09047  20762564.685    20762562.543    20762564.047  
 114375181.37347  89123520.75848  21764868.797    21764871.170    21764868.541  
 126954193.40247  98925306.05046  24158559.415    24158558.485    24158559.313  
 113192279.61749  88201757.75848  21539758.062    21539761.056    21539757.580  
 18 01 01 00 02 00.0000000  0 10G08G07G21G03G16G27G23G09G31G26       0.000000000
 126645991.72246  98685181.41247  24099926.848    24099932.432    24099927.813  
 129998164.07246 101297239.54146  24737819.457    24737819.943    24737818.433  
 134761948.20746 105009318.68742  25644345.532    25644345.738    25644343.856  
 132042869.17846 102890537.98046  25126917.291    25126922.957    25126917.564  
 105314641.99348  82063372.74747  20040702.788    20040702.282    20040702.000  
 113758244.46348  88642792.63948  21647469.414    21647472.302    21647469.393  
 109105331.73348  85017145.81947  20762045.245    20762043.415    20762044.748  
 114313411.04547  89075388.04548  21753114.348    21753116.416    21753114.011  
 127042674.08547  98994252.03746  24175396.980    24175396.413    24175396.854  
 113262227.81748  88256262.85148  21553069.032    21553071.882    21553068.437  
 18 01 01 00 02 30.0000000  0 10G08G07G21G03G16G27G23G09G31G26       0.000000000
 126531271.14546  98595788.78946  24078097.629    24078101.639    24078097.571  
 129906020.59047 101225439.49046  24720285.331    24720284.793    24720284.513  
 134725949.03346 104981267.40942  25637494.135    25637494.910    25637493.378  
 132138487.22346 102965045.51846  25145113.795    25145117.178    25145114.771  
 105335352.18548  82079510.56447  20044643.658    20044643.326    20044643.032  
 113675121.04248  88578021.15948  21631652.422    21631654.221    21631651.437  
 109103189.05848  85015476.20047  20761637.571    20761635.565    20761637.045  
 114252111.89048  89027622.47748  21741449.976    21741451.986    21741449.118  
 127131249.49547  99063271.80346  24192252.234    24192252.154    24192252.267  
 113332445.46348  88310977.90248  21566430.885    21566434.084    21566430.288  
 18 01 01 00 03 00.0000000  0 10G08G07G21G03G16G27G23G09G31G26       0.000000000
 126416631.22646  98506459.00247  24056282.389    24056287.184    24056282.339  
 129813866.23447 101153630.96846  24702748.926    24702748.444    24702748.656  
 134690278.98546 104953472.56942  25630707.049    25630705.913    25630706.278  
 132234077.97345 103039531.77346  25163302.390    25163307.952    25163302.419  
 105356548.39648  82096027.09747  20048677.504    20048676.919    20048676.501  
 113592431.95548  88513588.12148  21615916.581    21615919.495    21615916.207  
 109101632.90848  85014263.61547  20761341.477    20761339.563    20761340.823  
 114191286.16548  88980225.80748  21729875.025    21729876.892    21729874.371  
 127219919.15647  99132365.02746  24209126.162    24209126.513    24209125.641  
 113402930.68748  88365901.45348  21579843.413    21579846.960    21579843.025  
 18 01 01 00 03 30.0000000  0 10G08G07G21G03G16G27G23G09G31G26       0.000000000
 126302074.78946  98417194.28147  24034482.676    24034487.444    24034482.013  
 129721701.78047 101081814.55746  24685210.660    24685209.093    24685209.809  
 134654940.19246 104925935.87742  25623981.589    25623983.074    25623981.987  
 132329638.45046 103113994.50645  25181487.963    25181491.107    25181488.430  
 105378229.10948  82112921.16047  20052803.014    20052802.516    20052802.295  
 113510179.96248  88449495.69848  21600264.071    21600267.348    21600263.602  
 109100663.87248  85013508.51947  20761156.979    20761155.110    20761156.522  
 114130936.04948  88933199.74948  21718390.531    21718392.475    21718390.187  
 127308682.32847  99201531.10346  24226016.806    24226016.639    24226016.788  
 113473681.60348  88421032.04548  21593307.151    21593310.185    21593306.606  
 18 01 01 00 04 00.0000000  0 10G08G07G21G03G16G27G23G09G31G26       0.000000000
 126187604.15047  98327996.39447  24012700.006    24012704.062    24012699.402  
 129629528.10246 101009990.97746  24667668.752    24667670.549    24667668.574  
 134619933.87946 104898658.24443  25617321.142    25617321.467    25617321.004  
 132425165.89646 103188431.42745  25199666.402    25199670.279    25199665.478  
 105400392.88448  82130191.64147  20057020.608    20057020.076    20057019.880  
 113428367.85748  88385746.03948  21584696.772    21584698.906    21584695.720  
 109100282.27448  85013211.16847  20761084.520    20761082.420    20761083.853  
 114071063.69048  88886545.97048  21706997.317    21706999.497    21706996.847  
 127397538.63347  99270769.78046  24242925.215    24242926.169    24242924.544  
 113544696.36848  88476368.22248  21606820.691    21606823.899    21606820.227  
 18 01 01 00 04 30.0000000  0 10G08G07G21G03G16G27G23G09G31G26       0.000000000
 126073222.70446  98238868.05547  23990933.341    23990937.558    23990933.005  
 129537345.48347 100938160.43246  24650127.896    24650128.059    24650127.662  
 134585262.41546 104871641.56143  25610723.910    25610722.912    25610722.850  
 132520657.31745 103262840.32445  25217836.351    25217841.943    25217837.054  
 105423038.28148  82147837.40747  20061329.920    20061329.413    20061329.049  
 113346998.33248  88322341.24348  21569211.701    21569214.381    21569211.644  
 109100488.71548  85013372.02347  20761123.655    20761121.643    20761123.146  
 114011671.31848  88840266.20948  21695695.191    21695697.589    21695694.926  
 127486487.59647  99340080.59546  24259852.146    24259851.859    24259851.629  
 113615973.12048  88531908.55548  21620384.224    21620387.499    21620383.747  
 18 01 01 00 05 00.0000000  0 10G08G07G21G03G16G27G23G09G31G26       0.000000000
 125958932.93546  98149811.10546  23969185.436    23969188.541    23969185.749  
 129445155.00447 100866323.76946  24632585.005    24632585.259    24632584.527  
 134550927.39546 104844887.04143  25604189.949    25604189.982    25604189.201  
 132616110.11745 103337219.06345  25236000.611    25236005.509    25236001.452  
 105446163.71948  82165857.23347  20065730.708    20065730.135    20065729.790  
 113266074.11748  88259283.44248  21553812.418    21553815.275    21553812.224  
 109101283.64348  85013991.44247  20761274.929    20761272.957    20761274.449  
 113952761.08148  88794362.13148  21684484.652    21684486.814    21684484.841  
 127575528.87247  99409463.36147  24276795.213    24276796.559    24276795.689  
 113687510.00348  88587651.57948  21633996.812    21634000.459    21633996.766  
 18 01 01 00 05 30.0000000  0  9G08G07G21G16G27G23G09G31G26          0.000000000
 125844737.53346  98060827.70747  23947453.818    23947458.932    23947454.353  
 129352957.35347 100794481.48446  24615039.749    24615040.119    24615039.048  
 134516931.06246 104818396.44043  25597720.501    25597720.319    25597718.664  
 105469767.74248  82184249.98347  20070222.202    20070221.748    20070221.542  
 113185597.95248  88196574.76448  21538498.731    21538501.006    21538498.289  
 109102667.31648  85015069.62947  20761538.457    20761536.173    20761537.807  
 113894335.15648  88748835.43348  21673367.400    21673368.699    21673366.526  
 127664661.70447  99478917.50947  24293757.584    24293758.522    24293757.905  
 113759305.17448  88643595.87048  21647659.447    21647662.518    21647658.944  
 18 01 01 00 06 00.0000000  0  9G08G07G21G16G27G23G09G31G26          0.000000000
 125730639.40347  97971920.12147  23925743.019    23925746.435    23925742.084  
 129260752.99147 100722634.00646  24597493.956    24597493.392    24597493.323  
 134483274.59646 104792170.60743  25591315.378    25591315.391    25591314.085  
 105493848.62948  82203014.31447  20074804.474    20074804.254    20074803.910  
 113105572.51648  88134217.30248  21523270.142    21523272.811    21523269.856  
 109104640.31748  85016607.02847  20761913.822    20761911.547    20761913.147  
 113836395.66248  88703687.78948  21662341.436    21662343.462    21662340.917  
 127753885.77647  99548442.72047  24310736.246    24310736.979    24310736.261  
 113831356.79148  88699739.99348  21661370.221    21661373.672    21661369.845  
 18 01 01 00 06 30.0000000  0  9G08G07G21G16G27G23G09G31G26          0.000000000
 125616640.89346  97883090.09547  23904048.867    23904053.560    23904048.163  
 129168542.95647 100650782.05046  24579946.929    24579947.561    24579946.161  
 134449959.28546 104766210.69443  25584976.875    25584976.110    25584975.376  
 105518404.89848  82222149.07147  20079477.367    20079477.117    20079476.734  
 113026000.48548  88072213.16048  21508127.983    21508130.902    21508127.566  
 109107202.90848  85018603.84747  20762401.358    20762399.456    20762400.936  
 113778944.76548  88658920.85648  21651408.938    21651410.769    21651408.155  
 127843200.34747  99618038.47147  24327731.193    24327732.733    24327731.964  
 113903663.00948  88756082.50348  21675130.029    21675133.055    21675129.422  
 18 01 01 00 07 00.0000000  0  9G08G07G21G16G27G23G09G31G26          0.000000000
 125502745.01747  97794340.08146  23882375.654    23882378.219    23882375.157  
 129076327.69147 100578926.03746  24562399.104    24562399.523    24562398.518  
 134416987.30946 104740518.25943  25578700.845    25578700.573    25578700.117  
 105543434.91048  82241652.97847  20084240.533    20084240.042    20084239.871  
 112946884.56548  88010564.41348  21493072.960    21493075.401    21493072.492  
 109110355.22448  85021060.19347  20763001.408    20762999.324    20763000.575  
 113721984.50948  88614536.24748  21640569.578    21640571.821    21640569.141  
 127932604.98847  99687704.41047  24344744.527    24344745.516    24344744.400  
 113976221.98348  88812621.95948  21688937.191    21688940.641    21688936.741  
 18 01 01 00 07 30.0000000  0  9G08G07G21G16G27G23G09G31G26          0.000000000
 125388954.40946  97705672.08847  23860722.047    23860726.394    23860721.440  
 128984108.20247 100507066.74846  24544850.409    24544850.473    24544850.350  
 134384360.64146 104715094.94843  25572494.016    25572493.460    25572492.380  
 105568937.23748  82261524.92247  20089093.488    20089093.059    20089092.843  
 112868227.38448  87949273.13248  21478104.407    21478107.098    21478104.347  
 109114097.81048  85023976.48547  20763713.229    20763711.434    20763712.937  
 113665517.06948  88570535.65048  21629824.146    21629826.188    21629823.867  
 128022099.29847  99757440.19247  24361775.419    24361775.827    24361774.618  
 114049031.87248  88869356.94148  21702792.486    21702795.904    21702792.111  
 18 01 01 00 08 00.0000000  0  9G08G07G21G16G27G23G09G31G26          0.000000000
 125275271.77946  97617088.26247  23839087.285    23839092.096    23839088.002  
 128891885.22447 100435204.74746  24527301.206    24527300.770    24527301.027  
 134352080.64546 104689941.70643  25566350.922    25566350.049    25566349.267  
 105594909.96048  82281763.40847  20094036.093    20094035.470    20094035.288  
 112790031.62948  87888341.39748  21463224.592    21463227.464    21463224.179  
 109118430.95948  85027352.96647  20764538.017    20764536.084    20764537.422  
 113609544.50248  88526920.66848  21619173.090    21619175.114    21619172.553  
 128111682.80947  99827245.48046  24378822.699    24378822.542    24378822.675  
 114122090.85848  88926286.03148  21716695.258    21716698.344    21716694.704  
 18 01 01 00 08 30.0000000  0  9G08G07G21G16G27G23G09G31G26          0.000000000
 125161700.15247  97528590.94647  23817477.581    23817480.840    23817477.005  
 128799659.43247 100363340.54946  24509750.254    24509750.770    24509750.087  
 134320149.02646 104665059.97742  25560273.887    25560273.678    25560274.823  
 105621351.99548  82302367.59847  20099067.728    20099067.174    20099066.957  
 112712299.89848  87827771.25148  21448432.848    21448435.315    21448432.448  
 109123354.89948  85031189.80047  20765475.204    20765472.956    20765474.555  
 113554068.94548  88483692.96548  21608616.456    21608618.718    21608616.007  
 128201354.66047  99897119.61347  24395887.862    24395887.587    24395887.042  
 114195397.10648  88983407.77648  21730644.885    21730648.179    21730644.397  
 18 01 01 00 09 00.0000000  0  9G08G07G21G16G27G23G09G31G26          0.000000000
 125048242.21346  97440182.19047  23795886.070    23795890.147    23795884.904  
 128707431.39947 100291474.55846  24492200.134    24492200.330    24492200.440  
 134288567.89545 104640451.29943  25554262.830    25554264.303    25554262.038  
 105648261.33348  82323335.91147  20104188.439    20104187.871    20104187.818  
 112635034.82948  87767564.72448  21433729.611    21433732.218    21433729.298  
 109128869.78248  85035487.10647  20766524.474    20766522.519    20766523.872  
 113499092.39648  88440854.10148  21598155.106    21598156.964    21598154.188  
 128291114.42147  99967062.24346  24412967.934    24412967.856    24412967.259  
 114268948.80148  89040720.78148  21744641.201    21744644.467    21744640.679  
 18 01 01 00 09 30.0000000  0  9G08G07G21G16G27G23G09G31G26          0.000000000
 124934900.52646  97351863.97947  23774318.172    23774322.671    23774317.837  
 128615202.25047 100219607.71546  24474649.995    24474649.805    24474650.031  
 134257338.73046 104616116.92543  25548320.547    25548321.812    25548320.732  
 105675636.57948  82344667.27147  20109397.789    20109397.333    20109397.096  
 112558239.01248  87707723.86848  21419116.182    21419118.547    21419115.414  
 109134975.80248  85040245.04047  20767686.672    20767684.505    20767685.927  
 113444616.97248  88398405.72248  21587788.278    21587790.419    21587788.042  
 128380962.08247 100037073.40746  24430062.950    24430064.875    24430063.955  
 114342744.12948  89098223.63848  21758684.016    21758687.451    21758683.695  
 18 01 01 00 10 00.0000000  0  9G08G07G21G16G27G23G09G31G26          0.000000000
 124821678.06746  97263638.72347  23752772.883    23752776.369    23752773.005  
 128522972.71347 100147740.58046  24457098.742    24457099.716    24457098.860  
 134226462.53145 104592057.60243  25542445.407    25542446.412    25542444.340  
 105703475.99948  82366360.33047  20114695.458    20114694.839    20114694.652  
 112481915.06348  87648250.68848  21404592.179    21404594.752    21404591.590  
 109141673.47248  85045463.99247  20768960.609    20768959.050    20768960.233  
 113390644.66048  88356349.38848  21577517.980    21577519.972    21577517.293  
 128470896.84747 100107152.40046  24447179.622    24447179.677    24447178.198  
 114416781.27048  89155914.91448  21772772.758    21772776.083    21772772.367  
 18 01 01 00 10 30.0000000  0  9G08G07G21G16G27G23G09G31G26          0.000000000
 124708577.38646  97175508.33347  23731250.942    23731253.978    23731250.145  
 128430743.56147 100075873.76646  24439548.597    24439548.343    24439548.013  
 134195941.49746 104568275.00043  25536638.535    25536637.955    25536637.296  
 105731777.95848  82388413.80947  20120081.237    20120080.556    20120080.517  
 112406065.54948  87589147.20548  21390157.951    21390160.842    21390157.706  
 109148962.87148  85051144.03947  20770348.160    20770346.023    20770347.489  
 113337177.55948  88314686.71448  21567343.237    21567345.448    21567342.927  
 128560917.95847 100177298.68846  24464310.235    24464310.730    24464309.407  
 114491058.41948  89213793.21548  21786907.422    21786910.663    21786906.777  
 18 01 01 00 11 00.0000000  0  9G08G07G21G16G27G23G09G31G26          0.000000000
 124595601.32446  97087475.03447  23709751.960    23709754.912    23709751.047  
 128338515.28347 100004007.60947  24421998.251    24421997.480    24421997.684  
 134165777.52646 104544770.63743  25530898.989    25530899.403    25530897.053  
 105760540.67848  82410826.32247  20125554.604    20125553.965    20125553.914  
 112330693.03348  87530415.39948  21375815.423    21375818.057    21375814.797  
 109156843.84148  85057285.04747  20771847.759    20771845.818    20771847.311  
 113284217.62548  88273419.23448  21557265.328    21557267.351    21557264.903  
 128651025.10947 100247512.01746  24481455.649    24481456.816    24481456.160  
 114565573.74348  89271857.10448  21801087.039    21801090.488    21801086.461  
 18 01 01 00 11 30.0000000  0  9G08G07G21G16G27G23G09G31G26          0.000000000
 124482752.74246  96999541.10447  23688277.534    23688281.164    23688276.667  
 128246288.93847  99932142.96746  24404448.698    24404448.539    24404447.901  
 134135972.00846 104521545.59143  25525226.493    25525226.354    25525225.812  
 105789762.52248  82433596.58947  20131115.303    20131114.584    20131114.501  
 112255800.05048  87472057.26148  21361563.567    21361566.067    21361563.033  
 109165316.68548  85063887.25947  20773460.094    20773458.214    20773459.466  
 113231766.89848  88232548.53948  21547284.103    21547286.360    21547283.846  
 128741217.59847 100317791.88146  24498619.569    24498619.031    24498618.673  
 114640325.48948  89330105.22148  21815311.679    21815315.147    21815311.491  
 18 01 01 00 12 00.0000000  0  9G08G07G21G16G27G23G09G31G26          0.000000000
 124370033.77946  96911708.18447  23666827.728    23666831.831    23666826.990  
 128154065.16547  99860280.33546  24386897.311    24386897.977    24386898.182  
 134106526.18846 104498600.81743  25519623.746    25519622.302    25519621.157  
 105819441.99648  82456723.45747  20136762.976    20136762.439    20136762.335  
 112181389.15948  87414074.77548  21347403.761    21347406.247    21347403.212  
 109174381.38348  85070950.65647  20775184.967    20775183.098    20775184.521  
 113179827.34548  88192076.16148  21537400.161    21537402.754    21537399.939  
 128831495.14247 100388137.97646  24515798.412    24515798.265    24515798.146  
 114715311.82448  89388536.13048  21829581.492    21829584.691    21829580.972  
 18 01 01 00 12 30.0000000  0  9G08G07G21G16G27G23G09G31G26          0.000000000
 124257448.04847  96823979.06947  23645404.018    23645407.508    23645402.556  
 128061844.90947  99788420.44146  24369348.406    24369349.374    24369348.475  
 134077442.07046 104475937.87343  25514088.385    25514087.880    25514088.122  
 105849577.42548  82480205.61547  20142497.616    20142497.109    20142496.780  
 112107462.87648  87356469.90148  21333335.663    21333338.419    21333335.339  
 109184037.92448  85078475.22547  20777022.704    20777020.754    20777022.107  
 113128400.95048  88152003.65548  21527614.048    21527616.700    21527614.011  
 128921857.14847 100458549.91646  24532994.212    24532994.141    24532993.566  
 114790530.97148  89447148.45348  21843895.176    21843898.349    21843894.711  
 18 01 01 00 13 00.0000000  0  9G08G07G21G16G27G23G09G31G26          0.000000000
 124144997.92747  96736355.65347  23624004.374    23624008.727    23624004.172  
 127969629.23247  99716564.09346  24351800.896    24351801.295    24351800.223  
 134048721.03646 104453557.88143  25508622.310    25508622.416    25508621.631  
 105880167.29248  82504041.88147  20148318.583    20148318.135    20148317.918  
 112034023.68048  87299244.58448  21319361.167    21319363.382    21319360.375  
 109194286.73848  85086461.30547  20778972.905    20778971.041    20778972.327  
 113077489.66648  88112332.52348  21517926.156    21517928.487    21517925.888  
 129012303.11347 100529027.25146  24550205.925    24550205.768    24550205.278  
 114865981.13648  89505940.79348  21858252.701    21858256.085    21858252.209  
 18 01 01 00 13 30.0000000  0  9G08G07G21G16G27G23G09G31G26          0.000000000
 124032686.34847  96648840.13747  23602632.202    23602636.245    23602632.530  
 127877418.87947  99644711.89446  24334254.201    24334253.569    24334253.995  
 134020364.62646 104431461.99443  25503225.239    25503226.443    25503225.273  
 105911209.82648  82528230.87447  20154225.844    20154225.284    20154225.171  
 111961074.09148  87242400.76948  21305478.854    21305481.318    21305478.598  
 109205128.06748  85094909.09047  20781036.004    20781034.022    20781035.353  
 113027095.44148  88073064.29848  21508336.252    21508338.615    21508336.081  
 129102832.37947 100599569.50246  24567432.750    24567432.633    24567432.544  
 114941660.54648  89564911.76348  21872654.126    21872657.263    21872653.697  
 18 01 01 00 14 00.0000000  0  9G08G07G21G16G27G23G09G31G26          0.000000000
 123920515.91447  96561434.63147  23581286.900    23581290.915    23581286.334  
 127785214.59747  99572864.39846  24316707.323    24316708.305    24316707.711  
 133992374.61446 104409651.62543  25497900.187    25497899.615    25497899.494  
 105942703.39848  82552771.33047  20160218.832    20160218.382    20160218.249  
 111888616.56248  87185940.38848  21291691.436    21291693.484    21291690.433  
 109216561.24648  85103818.05547  20783211.523    20783209.562    20783210.946  
 112977220.21948  88034200.49248  21498845.496    21498847.905    21498845.198  
 129193444.41746 100670176.28946  24584674.170    24584675.593    24584674.428  
 115017567.43548  89624059.98248  21887098.519    21887101.993    21887098.293  
 18 01 01 00 14 30.0000000  0  9G08G07G21G16G27G23G09G31G26          0.000000000
 123808489.34447  96474141.23947  23559968.619    23559972.903    23559969.025  
 127693016.88947  99501022.04946  24299163.477    24299164.314    24299162.666  
 133964752.26046 104388127.72843  25492645.031    25492643.698    25492643.211  
 105974645.96648  82577661.64847  20166297.338    20166296.847    20166296.729  
 111816653.55548  87129865.34148  21277996.500    21277999.227    21277996.226  
 109228586.57948  85113188.44647  20785499.927    20785497.979    20785499.344  
 112927865.90048  87995742.58248  21489454.000    21489455.899    21489453.288  
 129284138.74447 100740847.11747  24601933.936    24601934.440    24601933.129  
 115093700.00148  89683384.06448  21901585.956    21901589.533    21901585.864  
 18 01 01 00 15 00.0000000  0  9G08G07G21G16G27G23G09G31G26          0.000000000
 123696609.64347  96386962.30247  23538678.240    23538682.921    23538677.612  
 127600826.90947  99429185.71246  24281620.569    24281619.874    24281621.001  
 133937499.49046 104366891.84343  25487458.044    25487456.815    25487456.417  
 106007035.71348  82602900.41947  20172460.581    20172460.350    20172460.307  
 111745187.48548  87074177.52348  21264397.650    21264399.849    21264396.627  
 109241204.05148  85123020.23447  20787901.175    20787899.019    20787900.330  
 112879034.41848  87957692.07948  21480161.642    21480163.918    21480161.224  
 129374914.83247 100811581.68447  24619207.931    24619209.135    24619208.093  
 115170056.49048  89742882.63148  21916116.039    21916119.552    21916115.811  
 18 01 01 00 15 30.0000000  0  9G08G07G21G16G27G23G09G31G26          0.000000000
 123584879.40747  96299899.80147  23517416.671    23517422.524    23517416.792  
 127508645.38847  99357356.01646  24264078.673    24264078.207    24264078.264  
 133910617.40446 104345944.75043  25482343.475    25482342.422    25482342.228  
 106039871.21648  82628486.52647  20178709.317    20178708.778    20178708.702  
 111674220.81648  87018878.84048  21250892.055    21250895.177    21250892.042  
 109254413.47648  85133313.28747  20790414.644    20790412.803    20790414.238  
 112830727.62648  87920050.42348  21470968.895    21470971.122    21470968.709  
 129465772.09947 100882379.51646  24636497.921    24636498.464    24636498.416  
 115246635.15048  89802554.31448  21930689.097    21930692.082    21930688.508  
 18 01 01 00 16 00.0000000  0  9G08G07G21G16G27G23G09G31G26          0.000000000
 123473301.30747  96212955.88547  23496186.037    23496188.739    23496184.423  
 127416473.27647  99285533.61146  24246538.122    24246539.220    24246538.161  
 133884106.88446 104325287.22944  25477297.832    25477297.038    25477297.956  
 106073150.71148  82654418.59947  20185042.076    20185041.748    20185041.439  
 111603755.93648  86963971.16048  21237483.859    21237485.968    21237482.843  
 109268214.77848  85144067.54447  20793041.254    20793039.134    20793040.694  
 112782947.37548  87882819.06248  21461876.682    21461878.782    21461876.419  
 129556710.26147 100953240.39146  24653803.365    24653803.980    24653802.724  
 115323434.20848  89862397.73748  21945303.356    21945306.503    21945302.815  
 18 01 01 00 16 30.0000000  0  9G08G07G21G16G27G23G09G31G26          0.000000000
 123361878.38047  96126132.84547  23474981.361    23474985.823    23474981.264  
 127324311.35247  99213719.18247  24229000.792    24229000.777    24229000.650  
 133857970.03246 104304920.86043  25472324.983    25472322.425    25472323.015  
 106106872.62148  82680695.41747  20191459.112    20191458.659    20191458.472  
 111533795.23548  86909456.35548  21224170.522    21224173.031    21224169.999  
 109282607.81848  85155282.89447  20795779.684    20795777.981    20795779.412  
 112735695.55648  87845999.46748  21452884.965    21452887.018    21452884.452  
 129647728.52547 101024163.68946  24671124.125    24671124.258    24671122.698  
 115400451.90548  89922411.53948  21959959.301    21959962.498    21959958.719  
 18 01 01 00 17 00.0000000  0  9G08G07G21G16G27G23G09G31G26          0.000000000
 123250613.21347  96039432.72447  23453808.627    23453812.311    23453808.104  
 127232160.75947  99141913.56747  24211464.932    24211465.528    24211464.373  
 133832209.03246 104284847.39343  25467420.385    25467421.763    25467419.836  
 106141035.28648  82707315.67547  20197960.007    20197959.532    20197959.450  
 111464341.11848  86855336.27748  21210953.519    21210956.272    21210953.265  
 109297592.65148  85166959.38047  20798631.369    20798629.557    20798630.854  
 112688974.00848  87809593.07048  21443994.396    21443996.317    21443993.971  
 129738826.59147 101095149.16646  24688458.433    24688458.105    24688457.734  
 115477686.52848  89982594.35148  21974656.284    21974659.739    21974655.888  
 18 01 01 00 17 30.0000000  0  9G08G07G21G16G27G23G09G31G26          0.000000000
 123139508.34847  95952857.52847  23432666.448    23432670.420    23432665.337  
 127140022.17647  99070117.32646  24193931.747    24193931.695    24193931.643  
 133806824.33146 104265067.12343  25462592.115    25462589.244    25462591.344  
 106175636.74748  82734277.86047  20204544.729    20204544.020    20204543.979  
 111395395.89248  86801612.76448  21197834.415    21197836.184    21197833.315  
 109313168.70548  85179096.55647  20801595.506    20801593.473    20801595.044  
 112642784.54048  87773601.28148  21435204.875    21435206.699    21435204.292  
 129830003.59547 101166196.17846  24705809.869    24705808.879    24705809.284  
 115555136.30148  90042944.83548  21989394.705    21989397.771    21989394.057  
 18 01 01 00 18 00.0000000  0  9G08G07G21G16G27G23G09G31G26          0.000000000
 123028566.83147  95866409.63347  23411554.453    23411559.161    23411553.909  
 127047896.59947  98998331.18546  24176400.394    24176401.364    24176400.953  
 133781817.75546 104245581.50543  25457832.924    25457832.899    25457831.069  
 106210675.29248  82761580.62547  20211212.368    20211211.675    20211211.381  
 111326961.94848  86748287.61648  21184811.224    21184813.649    21184811.104  
 109329335.88248  85191694.35647  20804671.964    20804669.978    20804671.505  
 112597128.97848  87738025.52248  21426516.920    21426518.802    21426516.184  
 129921259.21147 101237304.37246  24723173.712    24723174.744    24723173.280  
 115632799.50348  90103461.61148  22004173.338    22004176.805    22004172.954  
 18 01 01 00 18 30.0000000  0  9G08G07G21G16G27G23G09G31G26          0.000000000
 122917791.49347  95780091.22147  23390474.873    23390478.887    23390474.319  
 126955784.71047  98926555.71746  24158872.312    24158872.678    24158871.757  
 133757191.13146 104226391.97043  25453145.776    25453146.379    25453144.337  
 106246149.05148  82789222.51047  20217962.764    20217962.028    20217962.006  
 111259041.57448  86695362.66548  21171886.996    21171888.993    21171886.211  
 109346094.27148  85204752.83247  20807861.106    20807858.895    20807860.420  
 112552009.09648  87702867.17448  21417930.748    21417932.545    21417930.543  
 130012593.02147 101308473.56046  24740554.810    24740555.091    24740555.055  
 115710674.38648  90164143.33448  22018992.636    22018995.559    22018992.083  
 18 01 01 00 19 00.0000000  0  9G08G07G21G16G27G23G09G31G26          0.000000000
 122807185.06247  95693904.42747  23369426.655    23369431.720    23369426.738  
 126863687.54547  98854791.71246  24141346.250    24141346.792    24141346.504  
 133732945.50746 104207499.33943  25448532.913    25448531.988    25448531.654  
 106282056.57648  82817202.40947  20224795.522    20224795.169    20224794.861  
 111191637.09248  86642839.72148  21159059.789    21159062.255    21159059.261  
 109363443.63848  85218271.81647  20811162.778    20811160.529    20811162.006  
 112507426.68248  87668127.62548  21409447.040    21409448.807    21409446.662  
 130104004.21847 101379703.01446  24757949.047    24757949.849    24757948.730  
 115788759.25648  90224988.68948  22033852.110    22033854.885    22033851.125  
 18 01 01 00 19 30.0000000  0  9G08G07G21G16G27G23G09G31G26          0.000000000
 122696750.25847  95607851.34847  23348411.923    23348415.526    23348410.725  
 126771605.98347  98783039.88046  24123823.715    24123824.295    24123823.536  
 133709081.67346 104188904.11443  25443991.275    25443991.135    25443990.692  
 106318395.79148  82845518.67847  20231710.856    20231710.314    20231709.967  
 111124750.81148  86590720.55348  21146331.598    21146334.179    21146331.379  
 109381383.83848  85232251.18047  20814576.428    20814574.482    20814575.725  
 112463383.49648  87633808.26248  21401065.644    21401067.616    21401065.614  
 130195492.42247 101450992.42446  24775359.048    24775360.434    24775358.534  
 115867052.37248  90285996.31448  22048750.191    22048753.858    22048749.835  
 18 01 01 00 20 00.0000000  0  9G08G07G21G16G27G23G09G31G26          0.000000000
 122586489.83847  95521934.12647  23327428.922    23327433.856    23327429.110  
 126679540.87747  98711300.86146  24106304.831    24106304.779    24106304.598  
 133685601.46446 104170607.89343  25439522.925    25439522.157    25439522.223  
 106355165.01948  82874170.02447  20238707.689    20238707.122    20238707.008  
 111058384.97248  86539006.93748  21133703.189    21133705.245    21133702.527  
 109399914.20648  85246690.41847  20818102.642    20818100.683    20818102.095  
 112419881.25448  87599910.41048  21392787.873    21392789.659    21392787.473  
 130287056.97247 101522341.41046  24792783.197    24792784.274    24792783.329  
 115945552.00648  90347164.85648  22063688.224    22063691.530    22063687.723  
 18 01 01 00 20 30.0000000  0  9G08G07G21G16G27G23G09G31G26          0.000000000
 122476406.42947  95436154.87947  23306481.557    23306485.233    23306481.463  
 126587493.34447  98639575.55447  24088789.118    24088788.948    24088789.096  
 133662506.43146 104152611.76743  25435127.739    25435127.782    25435128.134  
 106392362.55148  82903155.11847  20245785.935    20245785.691    20245785.375  
 110992541.83548  86487700.62048  21121172.593    21121175.875    21121172.884  
 109419034.35448  85261589.24147  20821741.314    20821738.945    20821740.647  
 112376921.71048  87566435.43948  21384612.561    21384614.806    21384612.393  
 130378697.31747 101593749.44746  24810221.638    24810222.983    24810221.576  
 116024256.45248  90408493.00648  22078664.926    22078668.522    22078664.808  
 18 01 01 00 21 00.0000000  0  9G08G07G21G16G27G23G09G31G26          0.000000000
 122366502.84847  95350515.77647  23285568.939    23285572.155    23285568.433  
 126495464.26047  98567864.60646  24071276.202    24071276.313    24071275.490  
 133639797.94546 104134916.85043  25430807.147    25430806.916    25430805.765  
 106429986.67948  82932472.62347  20252945.686    20252945.291    20252945.048  
 110927223.63648  86436803.33648  21108743.772    21108745.985    21108743.158  
 109438744.02648  85276947.41447  20825491.739    20825489.748    20825491.292  
 112334506.56348  87533384.67748  21376540.950    21376543.502    21376540.619  
 130470412.77847 101665215.98546  24827673.554    24827674.863    24827674.865  
 116103164.01848  90469979.41848  22093680.597    22093684.362    22093680.340  
 18 01 01 00 21 30.0000000  0  9G08G07G21G16G27G23G09G31G26          0.000000000
 122256782.30047  95265019.28547  23264688.297    23264692.555    23264687.871  
 126403454.23347  98496168.50747  24053768.172    24053767.349    24053767.537  
 133617476.82646 104117523.81143  25426557.990    25426559.156    25426558.517  
 106468035.24848  82962120.85847  20260186.203    20260185.621    20260185.485  
 110862432.60948  86386316.85048  21096414.448    21096416.802    21096413.814  
 109459042.90448  85292764.71547  20829354.419    20829352.459    20829353.880  
 112292637.48248  87500759.42248  21368573.528    21368576.054    21368573.237  
 130562203.16547 101736740.92046  24845142.171    24845142.383    24845141.637  
 116182273.00548  90531622.78648  22108735.070    22108737.932    22108734.482  
 18 01 01 00 22 00.0000000  0  9G08G07G21G16G27G23G09G31G26          0.000000000
 122147246.92047  95179667.08447  23243843.856    23243848.796    23243843.880  
 126311464.67447  98424488.35247  24036262.442    24036262.229    24036262.771  
 133595544.82346 104100433.97643  25422385.506    25422385.160    25422385.502  
 106506506.73648  82992098.64247  20267507.080    20267506.490    20267506.416  
 110798170.94048  86336242.84348  21084185.475    21084188.181    21084185.238  
 109479930.79748  85309040.99047  20833329.231    20833327.399    20833328.923  
 112251316.13448  87468560.96148  21360710.586    21360712.716    21360710.178  
 130654067.72947 101808323.66046  24862622.920    24862623.859    24862622.708  
 116261581.71848  90593421.78748  22123826.763    22123830.123    22123826.269  
 18 01 01 00 22 30.0000000  0  9G08G07G21G16G27G23G09G31G26          0.000000000
 122037899.61947  95094461.42347  23223036.175    23223041.189    23223035.710  
 126219496.42247  98352824.79447  24018760.752    24018761.031    24018760.851  
 133574003.37846 104083648.47143  25418286.103    25418286.070    25418285.750  
 106545399.58948  83022404.76947  20274908.248    20274907.473    20274907.344  
 110734440.82248  86286583.03648  21072058.095    21072060.595    21072057.911  
 109501407.32648  85325775.93747  20837415.943    20837414.294    20837415.429  
 112210544.19948  87436790.62448  21352951.856    21352954.229    21352951.755  
 130746005.89747 101879963.79646  24880118.654    24880119.671    24880118.066  
 116341088.44848  90655375.08348  22138956.263    22138959.452    22138956.032  
 18 01 01 00 23 00.0000000  0  9G08G07G21G16G27G23G09G31G26          0.000000000
 121928743.26147  95009404.54547  23202264.392    23202269.209    23202264.019  
 126127550.29347  98281178.50447  24001264.066    24001264.720    24001264.632  
 133552853.55346 104067168.09943  25414262.809    25414260.976    25414261.093  
 106584711.69748  83053037.57947  20282388.897    20282388.306    20282388.239  
 110671244.37548  86237339.07048  21060032.536    21060034.904    21060031.695  
 109523471.75748  85342968.99247  20841614.818    20841612.952    20841614.289  
 112170323.33848  87405449.69848  21345298.301    21345300.663    21345297.926  
 130838017.03447 101951660.76046  24897626.973    24897629.094    24897627.251  
 116420791.55648  90717481.39148  22154123.561    22154126.542    22154123.047  
 18 01 01 00 23 30.0000000  0  9G08G07G21G16G27G23G09G31G26          0.000000000
 121819780.76147  94924498.73047  23181528.935    23181533.409    23181529.285  
 126035627.24147  98209550.16947  23983771.928    23983772.560    23983771.335  
 133532096.45246 104050993.76843  25410311.819    25410311.604    25410310.403  
 106624441.48048  83083995.85947  20289949.365    20289948.759    20289948.637  
 110608583.76648  86188512.65148  21048108.771    21048110.757    21048107.836  
 109546123.70048  85360619.84547  20845925.629    20845923.503    20845924.912  
 112130655.12548  87374539.40348  21337749.566    21337751.801    21337749.271  
 130930100.81047 102023414.30446  24915150.269    24915151.267    24915150.465  
 116500689.31848  90779739.40148  22169327.570    22169330.814    22169326.702  
 18 01 01 00 24 00.0000000  0  9G08G07G21G16G27G23G09G31G26          0.000000000
 121711014.59747  94839745.91147  23160831.392    23160836.667    23160831.283  
 125943728.19147  98137940.53746  23966284.480    23966285.040    23966284.290  
 133511733.59046 104035126.62543  25406436.688    25406436.359    25406435.801  
 106664586.68748  83115277.84047  20297588.550    20297588.079    20297587.718  
 110546461.12248  86140105.41148  21036286.511    21036289.391    21036286.515  
 109569362.78348  85378728.20447  20850347.575    20850345.739    20850346.997  
 112091541.17948  87344060.99848  21330306.645    21330308.821    21330306.103  
 131022256.62747 102095223.98946  24932687.170    24932688.130    24932687.282  
 116580780.10448  90842147.80148  22184567.761    22184571.259    22184567.580  
 18 01 01 00 24 30.0000000  0  9G08G07G21G16G27G23G09G31G26          0.000000000
 121602447.63747  94755148.31747  23140173.208    23140176.771    23140172.874  
 125851854.32147  98066350.53946  23948801.545    23948801.897    23948801.128  
 133491765.99246 104019567.47943  25402636.821    25402636.430    25402636.742  
 106705145.79548  83146882.34747  20305306.728    20305306.185    20305305.891  
 110484878.55848  86092119.01548  21024568.087    21024570.559    21024567.579  
 109593188.54948  85397293.73147  20854881.510    20854879.691    20854880.896  
 112052983.07748  87314015.72548  21322969.240    21322971.361    21322968.862  
 131114483.63446 102167089.14946  24950236.902    24950238.535    24950236.770  
 116661062.21648  90904705.28848  22199845.079    22199848.659    22199844.577  
 18 01 01 00 25 00.0000000  0  9G08G07G21G16G27G23G09G31G26          0.000000000
 121494082.56347  94670708.01847  23119551.640    23119555.541    23119550.851  
 125760006.42247  97994780.77047  23931323.555    23931323.323    23931323.285  
 133472195.06146 104004317.40143  25398913.784    25398912.179    25398912.794  
 106746116.89448  83178807.88247  20313103.147    20313102.763    20313102.472  
 110423838.13448  86044555.08048  21012952.624    21012954.978    21012952.041  
 109617600.40448  85416315.94747  20859527.203    20859525.032    20859526.395  
 112014982.38448  87284404.79648  21315737.824    21315740.036    21315737.556  
 131206781.28547 102239009.31646  24967801.630    24967801.389    24967800.662  
 116741534.02648  90967410.59848  22215158.663    22215161.950    22215158.149  
 18 01 01 00 25 30.0000000  0  9G08G07G21G16G27G23G09G31G26          0.000000000
 121385922.40047  94586427.41047  23098969.551    23098973.387    23098968.931  
 125668185.81447  97923232.25047  23913849.781    23913850.638    23913849.852  
 133453021.73646 103989377.17143  25395264.307    25395263.609    25395262.131  
 106787498.02248  83211052.91647  20320977.651    20320977.346    20320977.071  
 110363341.94448  85997415.22648  21001440.400    21001442.696    21001439.902  
 109642597.65048  85435794.31147  20864283.909    20864281.893    20864283.219  
 111977540.66948  87255229.43248  21308613.117    21308614.983    21308612.555  
 131299149.45347 102310984.50646  24985378.414    24985379.033    24985378.229  
 116822193.83948  91030262.40148  22230507.705    22230511.197    22230507.129  
 18 01 01 00 26 00.0000000  0  9G08G07G21G16G27G23G09G31G26          0.000000000
 121277969.59647  94502308.35947  23078426.789    23078429.753    23078425.980  
 125576393.25947  97851705.61447  23896382.959    23896383.436    23896382.236  
 133434247.34546 103974747.75943  25391691.296    25391690.753    25391690.873  
 106829287.62348  83243616.24747  20328930.055    20328929.490    20328929.271  
 110303392.01248  85950701.00748  20990031.786    20990034.610    20990032.011  
 109668179.96448  85455728.57947  20869152.147    20869149.867    20869151.562  
 111940659.43548  87226490.81048  21301594.839    21301597.032    21301594.178  
 131391587.29447 102383013.92946  25002968.609    25002969.491    25002968.586  
 116903040.07148  91093259.47948  22245891.936    22245895.037    22245891.708  
 18 01 01 00 26 30.0000000  0  9G08G07G21G16G27G23G09G31G26          0.000000000
 121170227.17747  94418353.26147  23057923.328    23057926.843    23057923.207  
 125484629.83047  97780201.64547  23878920.912    23878920.747    23878920.900  
 133415873.32246 103960430.37643  25388195.401    25388195.274    25388194.712  
 106871483.92848  83276496.49447  20336959.814    20336959.241    20336959.138  
 110243990.36748  85904414.03548  20978728.857    20978730.927    20978728.009  
 109694346.70048  85476118.23447  20874131.618    20874129.518    20874130.864  
 111904340.19948  87198190.11048  21294683.366    21294685.539    21294683.018  
 131484094.24946 102455097.24846  25020572.539    25020573.657    25020571.940  
 116984071.04048  91156400.48748  22261311.942    22261315.045    22261311.370  
 18 01 01 00 27 00.0000000  0  9G08G07G21G16G27G23G09G31G26          0.000000000
 121062697.65847  94334564.06447  23037461.359    23037465.419    23037461.387  
 125392896.47647  97708721.15047  23861464.401    23861464.166    23861464.151  
 133397900.84046 103946425.83743  25384774.958    25384774.673    25384774.160  
 106914084.88848  83309692.04947  20345066.554    20345065.897    20345065.786  
 110185138.99848  85858555.85348  20967529.810    20967531.878    20967529.021  
 109721096.87448  85496962.51547  20879221.797    20879219.757    20879221.149  
 111868584.44448  87170328.48448  21287879.292    21287881.196    21287878.829  
 131576669.61846 102527233.84946  25038188.506    25038188.661    25038187.505  
 117065285.09848  91219684.16548  22276766.314    22276769.573    22276766.010  
 18 01 01 00 27 30.0000000  0  9G08G07G21G16G27G23G09G31G26          0.000000000
 120955383.74147  94250942.87347  23017040.551    23017044.436    23017040.089  
 125301194.18247  97637264.83546  23844013.742    23844013.136    23844013.279  
 133380330.88646 103932735.01343  25381432.444    25381431.254    25381430.187  
 106957088.73648  83343201.54147  20353250.170    20353249.238    20353249.097  
 110126839.90348  85813128.02248  20956435.149    20956437.773    20956434.910  
 109748430.19048  85518261.19147  20884423.046    20884421.277    20884422.448  
 111833393.62248  87142907.06448  21281182.702    21281184.821    21281182.242  
 131669313.06546 102599423.46546  25055817.488    25055818.608    25055817.717  
 117146680.64348  91283109.26348  22292255.391    22292258.524    22292254.877  
 18 01 01 00 28 00.0000000  0  9G08G07G21G16G27G23G09G31G26          0.000000000
 120848288.44747  94167492.02447  22996661.252    22996664.989    22996660.502  
 125209524.21447  97565833.69847  23826570.557    23826569.535    23826569.774  
 133363164.64946 103919358.72543  25378165.040    25378165.802    25378163.744  
 107000493.47648  83377023.41947  20361509.460    20361509.036    20361508.746  
 110069095.06448  85768132.05848  20945446.613    20945449.333    20945446.567  
 109776345.91548  85540013.69947  20889735.279    20889733.467    20889734.669  
 111798769.22048  87115927.01448  21274593.650    21274596.035    21274593.468  
 131762023.74246 102671665.50046  25073460.807    25073461.924    25073460.677  
 117228256.04948  91346674.51148  22307778.582    22307782.178    22307778.087  
 18 01 01 00 28 30.0000000  0  9G08G07G21G16G27G23G09G31G26          0.000000000
 120741414.07047  94084213.34047  22976323.618    22976327.577    22976322.728  
 125117887.33247  97494428.35747  23809132.106    23809130.947    23809131.481  
 133346402.96846 103906297.70743  25374975.630    25374974.838    25374974.875  
 107044297.57248  83411156.48647  20369845.378    20369844.719    20369844.532  
 110011906.40548  85723569.48548  20934564.748    20934566.605    20934564.026  
 109804842.96348  85562219.18147  20895158.393    20895156.266    20895157.520  
 111764712.63148  87089389.41048  21268112.987    21268115.233    21268112.580  
 131854801.39446 102743959.72746  25091115.292    25091116.259    25091115.458  
 117310009.68448  91410378.64848  22323335.775    22323339.043    22323335.095  
 18 01 01 00 29 00.0000000  0  9G08G07G21G16G27G23G09G31G26          0.000000000
 120634763.55947  94001109.08647  22956028.097    22956032.322    22956027.522  
 125026284.51747  97423049.58447  23791700.571    23791699.725    23791700.077  
 133330047.41246 103893553.14843  25371862.155    25371862.260    25371862.249  
 107088498.75648  83445598.96747  20378256.162    20378255.892    20378255.679  
 109955275.82948  85679441.78948  20923788.080    20923790.279    20923787.433  
 109833921.40348  85584877.69647  20900691.637    20900689.414    20900690.868  
 111731225.29348  87063295.38848  21261740.511    21261742.995    21261740.163  
 131947645.22846 102816305.53846  25108782.581    25108784.373    25108782.500  
 117391939.97748  91474220.44248  22338926.739    22338930.148    22338925.825  
 18 01 01 00 29 30.0000000  0  9G08G07G21G16G27G23G09G31G26          0.000000000
 120528339.99447  93918181.67847  22935777.228    22935781.009    22935776.648  
 124934717.31147  97351698.53447  23774275.656    23774275.583    23774275.355  
 133314098.64946 103881125.55743  25368828.307    25368827.588    25368826.377  
 107133095.55748  83480349.71947  20386742.781    20386742.360    20386742.154  
 109899205.26748  85635750.47248  20913117.947    20913120.228    20913117.485  
 109863579.92448  85607988.22447  20906335.314    20906333.290    20906334.605  
 111698308.56548  87037645.99048  21255476.849    21255479.055    21255476.544  
 132040554.78646 102888702.49546  25126462.576    25126464.031    25126463.497  
 117474045.29948  91538198.61148  22354551.315    22354554.288    22354550.532  
 18 01 01 00 30 00.0000000  0  9G08G07G21G16G27G23G09G31G26          0.000000000
 120422145.75547  93835432.95447  22915568.987    22915572.083    22915568.603  
 124843186.26647  97280375.67247  23756857.778    23756857.644    23756858.025  
 133298558.01046 103869015.99043  25365870.963    25365870.668    25365869.803  
 107178085.90948  83515407.13647  20395304.276    20395303.785    20395303.462  
 109843696.58948  85592496.97748  20902554.819    20902557.258    20902554.437  
 109893817.89148  85631550.26647  20912089.514    20912087.647    20912088.802  
 111665963.98648  87012442.42248  21249321.675    21249323.953    21249321.543  
 132133529.21846 102961150.11146  25144155.052    25144157.116    25144155.527  
 117556324.02248  91602311.89348  22370208.146    22370210.979    22370207.501  
 18 01 01 00 30 30.0000000  0  9G08G07G21G16G27G23G09G31G26          0.000000000
 120316183.69847  93752865.14047  22895404.305    22895408.609    22895403.682  
 124751692.84347  97209082.13247  23739447.497    23739447.940    23739447.114  
 133283426.30146 103857225.03243  25362990.606    25362989.587    25362989.622  
 107223468.02548  83550769.82547  20403940.146    20403939.682    20403939.451  
 109788751.65848  85549682.76748  20892099.044    20892101.600    20892098.740  
 109924634.58048  85655563.26147  20917953.723    20917951.774    20917953.145  
 111634192.62648  86987685.50948  21243275.601    21243278.110    21243275.633  
 132226568.32346 103033648.07845  25161860.221    25161861.395    25161861.064  
 117638774.59748  91666559.09848  22385897.817    22385901.412    22385897.275  
 18 01 01 00 31 00.0000000  0  9G08G07G21G16G27G23G09G31G26          0.000000000
 120210456.61547  93670480.42747  22875286.213    22875289.776    22875284.861  
 124660237.88347  97137818.53347  23722044.615    23722043.396    23722043.871  
 133268704.32245 103845753.43643  25360189.106    25360188.880    25360187.980  
 107269239.98648  83586436.28647  20412650.101    20412649.671    20412649.465  
 109734372.31448  85507309.26948  20881750.971    20881753.535    20881750.675  
 109956029.07848  85680026.49347  20923927.630    20923926.056    20923927.416  
 111602995.94448  86963376.41548  21237339.624    21237341.776    21237339.003  
 132319671.14546 103106195.68446  25179577.012    25179578.367    25179578.031  
 117721395.41948  91730938.96447  22401619.974    22401623.384    22401619.422  
 18 01 01 00 31 30.0000000  0  9G08G07G21G16G27G23G09G31G26          0.000000000
 120104966.95847  93588280.73647  22855211.002    22855214.831    22855211.133  
 124568822.51247  97066585.79447  23704648.096    23704648.107    23704647.997  
 133254393.86246 103834602.42843  25357465.767    25357467.612    25357465.911  
 107315400.03048  83622405.15447  20421434.316    20421433.657    20421433.362  
 109680560.34048  85465377.87748  20871511.148    20871513.482    20871510.733  
 109988000.68448  85704939.42647  20930011.849    20930009.987    20930011.302  
 111572375.26248  86939516.14348  21231512.331    21231514.577    21231512.092  
 132412837.37446 103178792.66946  25197306.728    25197308.062    25197306.287  
 117804184.91548  91795450.26548  22417374.487    22417377.198    22417373.772  
 18 01 01 00 32 00.0000000  0  9G08G07G21G16G27G23G09G31G26          0.000000000
 119999717.50247  93506268.20647  22835183.147    22835186.668    22835182.545  
 124477447.89547  96995384.83647  23687260.477    23687260.062    23687260.077  
 133240495.85846 103823772.81243  25354821.433    25354822.340    25354820.167  
 107361946.00148  83658674.74347  20430291.375    20430291.067    20430290.921  
 109627317.56149  85423890.00948  20861379.780    20861381.617    20861378.851  
 110020548.37548  85730301.25547  20936205.448    20936203.637    20936204.887  
 111542331.86748  86916105.71148  21225795.525    21225797.576    21225795.126  
 132506066.32746 103251438.52946  25215047.784    25215049.432    25215047.953  
 117887141.51948  91860091.77848  22433160.335    22433163.734    22433159.945  
 18 01 01 00 32 30.0000000  0  9G08G07G21G16G27G23G09G31G26          0.000000000
 119894711.03747  93424445.02947  22815200.758    22815204.456    22815200.154  
 124386115.25947  96924216.55347  23669880.609    23669880.046    23669879.719  
 133227010.60646 103813264.84143  25352255.785    25352255.164    25352255.218  
 107408876.25348  83695243.76947  20439221.986    20439221.636    20439221.409  
 109574645.76849  85382847.08448  20851356.711    20851358.673    20851355.801  
 110053671.07748  85756111.14447  20942508.461    20942506.759    20942507.942  
 111512867.02648  86893146.08648  21220188.495    21220190.436    21220188.210  
 132599357.18246 103324132.60446  25232800.511    25232801.384    25232799.048  
 117970263.64148  91924862.26048  22448978.137    22448981.365    22448977.802  
 18 01 01 00 33 00.0000000  0  9G08G07G21G16G27G23G09G31G26          0.000000000
 119789950.47247  93342813.46647  22795265.349    22795268.435    22795265.122  
 124294825.38947  96853081.61847  23652508.537    23652507.158    23652508.167  
 133213939.31346 103803079.40243  25349768.425    25349768.344    25349767.135  
 107456189.01248  83732110.85147  20448225.462    20448224.761    20448224.797  
 109522546.69149  85342250.42548  20841442.300    20841444.661    20841441.813  
 110087368.08848  85782368.55147  20948921.117    20948918.959    20948920.504  
 111483981.94948  86870638.24048  21214691.988    21214693.923    21214691.686  
 132692709.93346 103396874.89446  25250563.818    25250566.135    25250564.757  
 118053549.74548  91989760.51648  22464826.535    22464830.284    22464826.232  
 18 01 01 00 33 30.0000000  0  9G08G07G21G16G27G23G09G31G26          0.000000000
 119685438.29747  93261375.44047  22775377.044    22775381.826    22775377.291  
 124203579.47948  96781980.92447  23635144.325    23635144.934    23635144.312  
 133201283.37846 103793217.69743  25347360.328    25347359.288    25347357.877  
 107503882.33048  83769274.48547  20457301.115    20457300.606    20457300.514  
 109471022.03248  85302101.36148  20831636.984    20831639.579    20831636.840  
 110121638.44648  85809072.71647  20955442.443    20955440.215    20955441.714  
 111455677.90448  86848583.14748  21209305.687    21209307.851    21209305.356  
 132786123.55046 103469664.66446  25268340.453    25268340.388    25268340.459  
 118136998.24848  92054785.33147  22480706.554    22480709.549    22480706.129  
 18 01 01 00 34 00.0000000  0  9G08G07G21G16G27G23G09G31G26          0.000000000
 119581177.20547  93180133.06247  22755537.235    22755541.463    22755536.890  
 124112378.88848  96710915.54147  23617789.941    23617788.469    23617788.842  
 133189043.27946 103783679.99543  25345030.419    25345030.076    25345029.801  
 107551954.46648  83806733.29147  20466448.754    20466448.441    20466448.242  
 109420073.55848  85262401.26548  20821941.575    20821944.222    20821941.648  
 110156481.43048  85836223.08247  20962072.805    20962070.860    20962072.388  
 111427956.09048  86826981.73248  21204030.353    21204032.726    21204030.182  
 132879597.33046 103542501.33046  25286127.746    25286128.915    25286128.893  
 118220607.64248  92119935.50747  22496617.243    22496620.061    22496616.693  
 18 01 01 00 34 30.0000000  0  9G08G07G21G16G27G23G09G31G26          0.000000000
 119477170.25247  93099088.73447  22735745.358    22735749.495    22735744.846  
 124021224.87247  96639886.44247  23600443.216    23600442.704    23600442.758  
 133177219.80546 103774466.87743  25342782.010    25342780.982    25342780.698  
 107600403.25548  83844485.59347  20475668.677    20475668.027    20475667.728  
 109369702.89648  85223151.41048  20812356.388    20812359.046    20812356.281  
 110191895.94948  85863818.80147  20968811.973    20968810.023    20968811.421  
 111400817.66148  86805834.90348  21198866.174    21198868.277    21198865.780  
 132973130.85746 103615384.56546  25303927.490    25303929.589    25303926.466  
 118304376.37348  92185209.84748  22512557.414    22512560.872    22512557.355  
 18 01 01 00 35 00.0000000  0  9G08G07G21G16G27G23G09G31G26          0.000000000
 119373419.92047  93018244.34747  22716001.718    22716005.673    22716001.958  
 123930117.74847  96568893.89047  23583105.990    23583106.521    23583105.724  
 133165814.25646 103765579.48143  25340610.053    25340609.230    25340610.125  
 107649226.69948  83882529.84347  20484959.479    20484958.849    20484958.718  
 109319911.76649  85184353.14448  20802881.548    20802884.171    20802881.512  
