     2.01           OBSERVATION DATA    G                   RINEX VERSION / TYPE
Gnsser              GeoSolution         20180624 181340 UTC PGM / RUN BY / DATE
Built by Gnsser. www.gnsser.com, gnsser@163.com             COMMENT
Gnsser, a GNSS data processing software, created in China   COMMENT
CONCATENATED OBSERVATION FILES                              COMMENT
GRX1200 V7,80       NERC                2018 01 0  00:5     COMMENT
BIT 2 OF LLI FLAGS DATA COLLECTED UNDER A/S CONDITION       COMMENT
SNR is mapped to RINEX snr flag value [2-9]                 COMMENT
LX:     = 25dBHz -> 1; 26-27dBHz -> 2; 28-31dBHz -> 3       COMMENT
32-35dBHz -> 4; 36-38dBHz -> 5; 39-41dBHz -> 6              COMMENT
42-44dBHz -> 7; 45-48dBHz -> 8; >= 49dBHz -> 9              COMMENT
HERT                                                        MARKER NAME
13212M010                                                   MARKER NUMBER
NERC                                                        OBSERVER / AGENCY
355316              LEICA GRX1200GGPRO  7.80/3.055          REC # / TYPE / VERS
200429              LEIAT504GG      NONE                    ANT # / TYPE
Built by Gnsser. www.gnsser.com, gnsser@163.com             COMMENT
Gnsser, a GNSS data processing software, created in China   COMMENT
Approx XYZ updated with igs18P19821_all_CoordOnly.snx 2018-0COMMENT
Built by Gnsser. www.gnsser.com, gnsser@163.com             COMMENT
Gnsser, a GNSS data processing software, created in China   COMMENT
Approx XYZ updated with igs18P19821_all_CoordOnly.snx 2018-0COMMENT
  4033460.7531    23538.0162  4924318.3881                  APPROX POSITION XYZ
        0.0000        0.0000        0.0000                  ANTENNA: DELTA H/E/N
     4    C1    L1    P2    L2                              # / TYPES OF OBSERV
    30.000                                                  INTERVAL
  2018     1     1     0     0    0.0000000                 TIME OF FIRST OBS
  2018     1     1    23    59   30.0000000                 TIME OF LAST OBS
     0                                                      LEAP SECONDS
                                                            END OF HEADER
 18 01 01 00 00 00.0000000  0  9G05G16G20G21G25G26G27G29G31          0.000000000
  24135649.033   126833709.926 7  24135646.709    98831451.95844
  22247574.777   116911801.114 8  22247572.250    91100085.79646
  23518057.099   123588229.069 7  23518055.579    96302507.00044
  21443038.127   112683931.180 9  21443035.378    87805655.85249
  24164513.599   126985384.646 7  24164514.857    98949660.75045
  20716374.992   108865293.603 9  20716376.018    84830108.50949
  24296493.908   127678937.341 6  24296495.154    99490085.76344
  21772002.320   114412661.547 9  21772000.234    89152719.93147
  22094859.497   116109259.222 9  22094857.147    90474734.96648
 18 01 01 00 00 30.0000000  0  9G05G16G20G21G25G26G27G29G31          0.000000000
  24137452.011   126843184.975 7  24137449.894    98838835.10745
  22231335.835   116826465.298 8  22231333.309    91033590.34546
  23505239.999   123520874.325 7  23505238.358    96250022.80545
  21436274.620   112648388.810 9  21436271.902    87777960.50748
  24184277.420   127089244.033 8  24184278.702    99030590.12945
  20708794.949   108825460.337 9  20708795.995    84799069.59749
  24277192.542   127577507.324 6  24277193.395    99411049.44245
  21786909.987   114491001.427 9  21786907.883    89213763.99147
  22110171.021   116189721.722 9  22110168.605    90537433.00548
 18 01 01 00 01 00.0000000  0  9G05G16G20G21G25G26G27G29G31          0.000000000
  24139365.894   126853243.264 7  24139363.958    98846672.76644
  22215141.054   116741361.089 8  22215138.478    90967275.38346
  23492494.572   123453896.372 7  23492492.864    96197832.19844
  21429600.323   112613315.269 9  21429597.629    87750630.48548
  24204067.085   127193238.692 8  24204068.110    99111624.94145
  20701293.455   108786039.740 9  20701294.510    84768352.24349
  24257912.403   127476189.605 6  24257913.254    99332100.59645
  21801860.339   114569565.867 9  21801858.178    89274983.01747
  22125554.743   116270563.815 9  22125552.319    90600426.83347
 18 01 01 00 01 30.0000000  0  9G05G16G20G21G25G26G27G29G31          0.000000000
  24141390.681   126863883.503 7  24141388.785    98854963.86844
  22198990.299   116656488.590 8  22198987.754    90901140.96746
  23479821.183   123387296.768 7  23479819.314    96145936.39144
  21423014.969   112578709.146 9  21423012.315    87723664.68348
  24223882.022   127297366.083 8  24223882.861    99192763.14145
  20693870.512   108747031.949 9  20693871.555    84737956.56349
  24238653.486   127374983.888 6  24238654.513    99253239.09245
  21816852.803   114648352.026 9  21816850.678    89336374.81947
  22141009.967   116351781.499 9  22141007.575    90663713.33048
 18 01 01 00 02 00.0000000  0  9G05G16G20G21G25G26G27G29G31          0.000000000
  24143527.313   126875111.944 7  24143525.303    98863713.28244
  22182885.288   116571856.287 8  22182882.797    90835193.71946
  23467221.423   123321084.272 7  23467219.245    96094342.26844
  21416519.847   112544577.325 9  21416517.265    87697068.46948
  24243723.058   127401631.262 7  24243723.766    99274008.71245
  20686527.640   108708444.700 9  20686528.622    84707888.57149
  24219417.437   127273897.447 6  24219418.565    99174470.49545
  21831888.310   114727364.421 9  21831886.235    89397942.90447
  22156537.519   116433378.899 9  22156535.097    90727295.70247
 18 01 01 00 02 30.0000000  0  9G05G16G20G21G25G26G27G29G31          0.000000000
  24145774.104   126886919.450 7  24145772.105    98872913.94144
  22166824.492   116487456.551 8  22166822.071    90769427.69246
  23454694.053   123255252.871 7  23454691.907    96043045.06645
  21410113.461   112510911.691 9  21410110.921    87670835.51448
  24263588.292   127506024.061 7  24263589.003    99355353.74345
  20679263.364   108670270.528 9  20679264.315    84678142.46049
  24200202.546   127172922.372 6  24200203.562    99095788.67245
  21846964.959   114806592.560 9  21846962.688    89459679.11147
  22172135.161   116515344.734 9  22172132.685    90791165.16447
 18 01 01 00 03 00.0000000  0  9G05G16G20G21G25G26G27G29G31          0.000000000
  24148132.358   126899311.646 7  24148130.164    98882570.20944
  22150809.385   116403296.773 8  22150806.948    90703848.65646
  23442240.753   123189810.775 7  23442238.763    95992051.25745
  21403796.942   112477718.110 9  21403794.399    87644970.38748
  24283478.627   127610548.716 7  24283479.498    99436801.47344
  20672078.979   108632516.331 9  20672079.929    84648723.60549
  24181010.024   127072064.930 7  24181010.998    99017198.51545
  21862083.489   114886040.544 9  21862081.077    89521586.62047
  22187803.463   116597682.048 9  22187800.898    90855324.10047
 18 01 01 00 03 30.0000000  0  9G05G16G20G21G25G26G27G29G31          0.000000000
  24150601.449   126912287.033 7  24150599.195    98892680.94845
  22134840.116   116319377.596 8  22134837.569    90638457.09446
  23429861.975   123124759.515 7  23429859.923    95941361.95245
  21397570.169   112444996.158 9  21397567.639    87619472.76849
  24303393.661   127715202.794 8  24303394.487    99518350.10544
  20664974.547   108595182.356 9  20664975.534    84619632.19049
  24161839.818   126971325.053 6  24161840.744    98938699.99844
  21877243.327   114965705.740 9  21877240.843    89583663.39647
  22203541.707   116680387.044 9  22203539.107    90919769.54347
 18 01 01 00 04 00.0000000  0  9G05G16G20G21G25G26G27G29G31          0.000000000
  24153181.465   126925844.505 7  24153179.199    98903245.22644
  22118916.890   116235700.053 8  22118914.262    90573253.79847
  23417557.938   123060100.754 7  23417555.818    95890978.50045
  21391432.966   112412744.966 9  21391430.449    87594341.98249
  24323332.895   127819984.221 7  24323333.691    99599997.95145
  20657950.178   108558269.205 9  20657951.208    84590868.69749
  24142692.009   126870702.804 6  24142692.789    98860293.07045
  21892443.995   115045585.678 9  21892441.543    89645907.49347
  22219349.353   116763456.550 9  22219346.711    90984499.01648
 18 01 01 00 04 30.0000000  0  9G05G16G20G21G25G26G27G29G31          0.000000000
  24155872.361   126939985.242 7  24155870.046    98914263.97045
  22103040.153   116152267.289 8  22103037.545    90508241.27246
  23405329.283   122995838.577 7  23405327.117    95840904.09845
  21385385.831   112380966.927 9  21385383.262    87569579.87449
  24343296.463   127924893.127 7  24343297.156    99681745.14844
  20651006.418   108521779.672 9  20651007.480    84562435.29449
  24123567.032   126770200.517 6  24123567.675    98781979.64345
  21907685.340   115125679.491 9  21907682.945    89708318.24447
  22235226.151   116846889.489 9  22235223.486    91049511.68447
 18 01 01 00 05 00.0000000  0 10G05G16G18G20G21G25G26G27G29G31       0.000000000
  24158674.686   126954711.281 7  24158672.358    98925738.81745
  22087210.842   116069083.475 8  22087208.235    90443422.72346
  25309500.575   133002324.961 5  25309500.746   103638173.88454
  23393177.070   122931978.526 7  23393174.971    95791143.01144
  21379429.286   112349664.836 9  21379426.633    87545188.64249
  24363284.415   128029930.656 7  24363285.102    99763592.53344
  20644144.033   108485717.512 9  20644145.098    84534334.91349
  24104465.529   126669821.561 7  24104466.173    98703762.35944
  21922967.870   115205989.577 9  21922965.536    89770897.52847
  22251172.147   116930686.024 9  22251169.473    91114807.67447
 18 01 01 00 05 30.0000000  0 10G05G16G18G20G21G25G26G27G29G31       0.000000000
  24161585.330   126970006.600 8  24161583.088    98937657.27644
  22071426.306   115986134.616 8  22071423.526    90378787.24146
  25292845.129   132914802.350 5  25292844.051   103569974.56442
  23381098.684   122868506.810 7  23381096.740    95741684.54144
  21373560.409   112318823.607 9  21373557.681    87521156.52149
  24383293.603   128135079.595 7  24383294.242    99845526.77044
  20637360.233   108450068.263 9  20637361.279    84506556.27149
  24085384.736   126569551.047 7  24085385.264    98625629.53145
  21938288.058   115286497.814 9  21938285.772    89833631.19847
  22267183.757   117014827.549 9  22267181.086    91180372.48847
 18 01 01 00 06 00.0000000  0 10G05G16G18G20G21G25G26G27G29G31       0.000000000
  24164609.938   126985900.636 7  24164607.639    98950042.24844
  22055692.390   115903451.937 8  22055689.457    90314359.18946
  25276181.348   132827234.430 5  25276179.523   103501739.84042
  23369100.354   122805456.148 7  23369098.461    95692554.16945
  21367784.807   112288472.766 9  21367782.079    87497506.52149
  24403329.390   128240368.323 7  24403330.015    99927569.92545
  20630660.931   108414862.984 9  20630661.914    84479123.57949
  24066330.268   126469419.415 7  24066331.008    98547604.92544
  21953651.316   115367232.336 9  21953648.986    89896541.21647
  22283266.229   117099341.290 9  22283263.527    91246227.34547
 18 01 01 00 06 30.0000000  0 10G05G16G18G20G21G25G26G27G29G31       0.000000000
  24167744.106   127002371.524 7  24167741.771    98962876.73044
  22040005.420   115821016.188 8  22040002.437    90250123.53947
  25259505.434   132739602.614 5  25259503.494   103433455.26843
  23357178.657   122742807.716 7  23357176.894    95643737.20945
  21362098.527   112258591.241 9  21362095.804    87474222.22449
  24423387.619   128345774.489 7  24423388.191   100009704.59245
  20624042.318   108380081.897 9  20624043.316    84452021.43449
  24047298.371   126369406.555 6  24047299.106    98469672.87844
  21969053.278   115448170.596 9  21969050.936    89959609.97547
  22299414.968   117184203.537 9  22299412.296    91312353.75247
 18 01 01 00 07 00.0000000  0 10G05G16G18G20G21G25G26G27G29G31       0.000000000
  24170988.664   127019422.079 7  24170986.189    98976162.86945
  22024366.286   115738831.821 9  22024363.275    90186083.77347
  25242818.339   132651912.067 5  25242816.497   103365124.93242
  23345334.595   122680566.773 7  23345332.906    95595237.77044
  21356502.243   112229182.531 9  21356499.510    87451306.34649
  24443468.419   128451299.585 7  24443469.139   100091931.86344
  20617505.193   108345729.100 9  20617506.230    84425253.01749
  24028289.881   126269516.218 6  24028290.448    98391836.27644
  21984494.223   115529313.619 9  21984491.922    90022838.29747
  22315630.047   117269414.548 9  22315627.476    91378751.93447
 18 01 01 00 07 30.0000000  0 10G05G16G18G20G21G25G26G27G29G31       0.000000000
  24174343.989   127037054.917 7  24174341.468    98989902.77044
  22008776.024   115656904.067 8  22008773.003    90122243.97647
  25226121.266   132564168.594 5  25226119.132   103296753.39343
  23333569.285   122618739.443 7  23333567.600    95547060.63745
  21350996.674   112200250.517 9  21350993.916    87428761.92649
  24463572.190   128556945.535 7  24463572.997   100174253.40245
  20611050.451   108311809.232 9  20611051.491    84398821.94849
  24009305.332   126169752.482 6  24009306.056    98314098.35945
  21999974.607   115610663.355 9  21999972.396    90086227.69147
  22331911.667   117354975.135 9  22331909.165    91445422.51647
 18 01 01 00 08 00.0000000  0 10G05G16G18G20G21G25G26G27G29G31       0.000000000
  24177809.614   127055267.363 7  24177807.237    99004094.30044
  21993234.350   115575231.797 8  21993231.245    90058603.23847
  25209414.093   132476371.520 5  25209411.720   103228340.13144
  23321882.678   122557325.879 7  23321881.086    95499205.91545
  21345581.303   112171792.696 9  21345578.562    87406587.00449
  24483698.186   128662708.457 7  24483699.229   100256666.04044
  20604677.881   108278321.069 9  20604678.896    84372727.27249
  23990344.692   126070113.809 7  23990345.385    98236457.89145
  22015493.572   115692215.571 9  22015491.414    90149774.86647
  22348258.900   117440880.270 9  22348256.481    91512361.57747
 18 01 01 00 08 30.0000000  0 10G05G16G18G20G21G25G26G27G29G31       0.000000000
  24181386.155   127074061.631 7  24181383.805    99018739.18644
  21977742.297   115493820.510 8  21977739.177    89995165.89047
  25192697.667   132388526.136 5  25192695.233   103159889.13744
  23310275.912   122496331.915 7  23310274.374    95451678.18645
  21340256.837   112143812.528 9  21340254.093    87384784.28049
  24503846.714   128768590.329 7  24503847.844   100339171.37344
  20598388.296   108245269.129 9  20598389.314    84346972.51649
  23971408.578   125970604.248 7  23971409.303    98158918.01944
  22031051.302   115773972.060 9  22031049.228    90213481.21047
  22364671.758   117527130.360 9  22364669.413    91579569.43247
 18 01 01 00 09 00.0000000  0 10G05G16G18G20G21G25G26G27G29G31       0.000000000
  24185072.366   127093432.538 8  24185070.062    99033833.41944
  21962299.246   115412666.652 9  21962296.096    89931929.12347
  25175971.881   132300631.363 5  25175969.420   103091399.71643
  23298748.464   122435754.317 8  23298746.731    95404474.85244
  21335022.502   112116305.911 9  21335019.779    87363350.55649
  24524016.717   128874584.858 7  24524017.811   100421764.52944
  20592181.081   108212649.819 9  20592182.076    84321554.86949
  23952496.255   125871219.786 6  23952497.054    98081475.65845
  22046646.532   115855926.312 9  22046644.564    90277341.64847
  22381148.766   117613717.904 9  22381146.469    91647040.23047
 18 01 01 00 09 30.0000000  0 10G05G16G18G20G21G25G26G27G29G31       0.000000000
  24188869.190   127113384.794 7  24188866.918    99049380.62745
  21946906.482   115331777.073 9  21946903.293    89868898.28447
  25159237.916   132212693.604 6  25159235.361   103022876.72544
  23287301.817   122375601.380 7  23287299.879    95357602.42444
  21329879.217   112089277.794 9  21329876.523    87342289.69749
  24544208.910   128980695.583 7  24544209.961   100504448.21345
  20586057.350   108180469.307 9  20586058.363    84296479.13849
  23933608.913   125771966.105 6  23933609.683    98004135.17945
  22062280.087   115938081.897 9  22062278.207    90341358.96947
  22397690.567   117700645.732 9  22397688.229    91714776.19447
 18 01 01 00 10 00.0000000  0 10G05G16G18G20G21G25G26G27G29G31       0.000000000
  24192776.240   127133916.337 7  24192773.815    99065379.23244
  21931564.079   115251152.127 8  21931560.863    89806073.65447
  25142495.907   132124713.723 5  25142493.593   102954321.04444
  23275936.179   122315874.087 7  23275934.141    95311061.68345
  21324826.618   112062726.351 9  21324823.971    87321600.26649
  24564422.789   129086919.891 7  24564423.805   100587220.38345
  20580017.092   108148727.559 9  20580018.108    84271745.31149
  23914746.355   125672842.944 6  23914747.110    97926896.40646
  22077951.615   116020436.056 9  22077949.665    90405531.03747
  22414296.314   117787909.612 9  22414293.919    91782774.01547
 18 01 01 00 10 30.0000000  0 10G05G16G18G20G21G25G26G27G29G31       0.000000000
  24196793.147   127155025.456 7  24196790.587    99081827.87645
  21916272.123   115170792.352 9  21916268.943    89743455.65647
  25125746.145   132036693.180 5  25125743.937   102885733.67143
  23264651.732   122256573.623 7  23264649.723    95264853.54545
  21319864.677   112036651.287 9  21319862.051    87301282.04349
  24584657.778   129193255.259 7  24584658.798   100670079.09645
  20574060.351   108117424.634 9  20574061.393    84247353.41849
  23895908.528   125573849.851 6  23895909.232    97849759.00345
  22093660.399   116102985.637 9  22093658.317    90469855.37347
  22430965.240   117875505.544 9  22430962.803    91851030.56847
 18 01 01 00 11 00.0000000  0 10G05G16G18G20G21G25G26G27G29G31       0.000000000
  24200920.081   127176712.738 7  24200917.507    99098727.08444
  21901031.162   115090700.852 9  21901028.051    89681046.69647
  25108989.297   131948635.700 5  25108987.364   102817117.36143
  23253449.139   122197703.812 7  23253447.243    95218980.97144
  21314993.758   112011054.482 9  21314991.129    87281336.48349
  24604913.899   129299701.708 7  24604914.936   100753024.37445
  20568187.634   108086563.245 9  20568188.705    84223305.57949
  23877095.936   125474989.256 6  23877096.721    97772724.78845
  22109406.271   116185730.884 9  22109404.232    90534332.17047
  22447697.173   117963432.575 9  22447694.731    91919545.13147
 18 01 01 00 11 30.0000000  0 10G05G16G18G20G21G25G26G27G29G31       0.000000000
  24205156.600   127198975.657 7  24205154.024    99116074.82344
  21885841.277   115010877.554 9  21885838.183    89618846.72747
  25092225.497   131860541.780 5  25092223.619   102748472.81243
  23242328.612   122139265.433 7  23242326.860    95173444.57545
  21310213.492   111985934.036 9  21310210.857    87261762.12349
  24625190.560   129406256.095 7  24625191.576   100836053.74345
  20562398.836   108056142.803 9  20562399.880    84199601.33649
  23858308.304   125376260.002 6  23858309.126    97695792.91545
  22125188.734   116268668.278 9  22125186.762    90598958.69747
  22464491.226   118051686.066 9  22464488.790    91988314.06947
 18 01 01 00 12 00.0000000  0 10G05G16G18G20G21G25G26G27G29G31       0.000000000
  24209503.046   127221816.299 7  24209500.644    99133872.73844
  21870703.285   114931326.896 8  21870700.189    89556859.20447
  25075455.786   131772416.105 5  25075453.470   102679803.46343
  23231291.089   122081263.351 7  23231289.358    95128248.16145
  21305524.338   111961292.310 9  21305521.686    87242560.78249
  24645487.991   129512919.548 7  24645488.806   100919168.15644
  20556694.643   108026167.034 9  20556695.681    84176243.59649
  23839546.348   125277665.590 7  23839547.269    97618966.09145
  22141008.127   116351799.134 9  22141006.075    90663735.97447
  22481347.425   118140266.108 9  22481344.959    92057337.47047
 18 01 01 00 12 30.0000000  0 10G05G16G18G20G21G25G26G27G29G31       0.000000000
  24213958.908   127245232.280 7  24213956.481    99152118.92045
  21855617.226   114852049.134 9  21855614.151    89495084.32547
  25058680.291   131684259.896 6  25058677.758   102611110.24643
  23220336.868   122023698.386 7  23220334.966    95083392.35045
  21300926.082   111937128.304 9  21300923.446    87223731.69449
  24665805.577   129619689.272 7  24665806.354   101002365.31645
  20551075.018   107996635.704 9  20551076.054    84153232.16149
  23820809.955   125179205.473 7  23820810.961    97542243.94745
  22156863.643   116435119.969 9  22156861.504    90728661.28547
  22498265.005   118229168.494 9  22498262.515    92126612.04547
 18 01 01 00 13 00.0000000  0 10G05G16G18G20G21G25G26G27G29G31       0.000000000
  24218524.665   127269226.307 7  24218522.439    99170815.61245
  21840584.090   114773049.526 9  21840581.055    89433526.19247
  25041899.980   131596072.906 5  25041897.678   102542381.8654 
  23209467.008   121966576.560 7  23209464.875    95038881.86145
  21296419.356   111913445.417 9  21296416.748    87205277.50349
  24686143.701   129726567.157 7  24686144.544   101085646.77944
  20545540.828   107967553.350 9  20545541.866    84130570.58449
  23802099.887   125080883.844 7  23802101.009    97465629.75845
  22172755.736   116518633.091 9  22172753.502    90793736.43247
  22515244.067   118318393.937 9  22515241.589    92196138.35047
 18 01 01 00 13 30.0000000  0 10G05G16G18G20G21G25G26G27G29G31       0.000000000
  24223199.484   127293792.376 7  24223197.326    99189957.99744
  21825603.244   114694324.550 9  21825600.213    89372182.05847
  25025114.241   131507863.412 5  25025112.325   102473649.93544
  23198680.912   121909894.817 7  23198678.670    94994714.26645
  21292003.193   111890238.461 9  21292000.603    87187194.16749
  24706501.228   129833546.798 7  24706502.086   101169007.52945
  20540091.307   107938915.995 9  20540092.369    84108255.75849
  23783415.321   124982696.278 7  23783416.470    97389119.99545
  22188683.110   116602331.593 9  22188680.873    90858956.04147
  22532283.075   118407934.497 9  22532280.653    92265910.21047
 18 01 01 00 14 00.0000000  0 10G05G16G18G20G21G25G26G27G29G31       0.000000000
  24227983.567   127318932.796 7  24227981.426    99209547.93445
  21810675.531   114615879.010 9  21810672.488    89311055.66447
  25008324.426   131419631.464 5  25008323.049   102404901.52943
  23187979.565   121853658.567 7  23187977.252    94950893.81745
  21287678.232   111867510.740 9  21287675.673    87169484.25849
  24726878.382   129940629.631 7  24726879.240   101252448.68444
  20534727.241   107910727.799 9  20534728.314    84086290.93649
  23764757.042   124884646.493 7  23764758.172    97312717.57945
  22204645.998   116686217.007 9  22204643.824    90924321.28547
  22549382.084   118497790.426 9  22549379.760    92335927.80447
 18 01 01 00 14 30.0000000  0 10G05G16G18G20G21G25G26G27G29G31       0.000000000
  24232877.109   127344647.923 8  24232874.761    99229585.73044
  21795801.544   114537715.649 9  21795798.444    89250149.15247
  24991531.213   131331382.156 5  24991529.885   102336136.79942
  23177363.622   121797871.345 7  23177361.274    94907423.26044
  21283444.700   111845263.397 9  21283442.158    87152148.66849
  24747275.164   130047815.636 7  24747276.017   101335970.24644
  20529449.122   107882991.270 9  20529450.223    84064678.04849
  23746125.513   124786736.853 7  23746126.557    97236424.39145
  22220644.307   116770289.018 9  22220642.281    90989831.91647
  22566540.852   118587960.392 9  22566538.537    92406190.11747
 18 01 01 00 15 00.0000000  0 10G05G16G18G20G21G25G26G27G29G31       0.000000000
  24237878.674   127370931.299 7  24237876.293    99250066.26245
  21780980.432   114459830.119 9  21780977.268    89189459.12847
  24974733.698   131243110.540 6  24974732.054   102267353.7684 
  23166832.376   121742529.754 7  23166830.149    94864299.95345
  21279301.534   111823490.893 9  21279298.975    87135183.09249
  24767690.234   130155097.495 7  24767691.118   101419566.47644
  20524256.039   107855701.567 9  20524257.140    84043413.34149
  23727519.643   124688962.105 6  23727520.593    97160236.31345
  22236676.676   116854540.112 9  22236674.794    91055482.11147
  22583757.746   118678435.798 9  22583755.475    92476690.42247
 18 01 01 00 15 30.0000000  0 11G05G09G16G18G20G21G25G26G27G29G31    0.000000000
  24242989.872   127397790.874 7  24242987.444    99270995.80444
  25037644.399   131573707.250 6  25037644.363   102524963.83845
  21766214.270   114382233.366 9  21766211.089    89128994.12347
  24957934.144   131154828.000 5  24957932.287   102198562.1734 
  23156388.046   121687644.875 7  23156385.900    94821532.51145
  21275250.340   111802201.680 9  21275247.757    87118594.10049
  24788124.956   130262482.574 7  24788125.774   101503243.18944
  20519149.908   107828868.749 9  20519151.007    84022504.64649
  23708941.231   124591331.962 7  23708942.094    97084160.91046
  22252744.750   116938977.830 9  22252742.729    91121277.73747
  22601033.942   118769222.703 9  22601031.677    92547433.46347
 18 01 01 00 16 00.0000000  0 11G05G09G16G18G20G21G25G26G27G29G31    0.000000000
  24248209.385   127425219.031 7  24248206.864    99292368.42045
  25039764.467   131584847.828 5  25039764.201   102533644.78944
  21751502.088   114304920.304 9  21751498.943    89068750.18847
  24941131.605   131066529.997 6  24941129.867   102129758.54843
  23146029.778   121633212.204 7  23146027.749    94779117.47545
  21271289.697   111781388.391 9  21271287.095    87102375.95949
  24808577.724   130369962.855 7  24808578.599   101586994.07045
  20514129.632   107802487.188 9  20514130.779    84001947.58849
  23690389.229   124493840.599 7  23690390.131    97008193.68146
  22268846.682   117023593.901 9  22268844.542    91187212.32847
  22618367.690   118860311.899 9  22618365.446    92618412.04147
 18 01 01 00 16 30.0000000  0 11G05G09G16G18G20G21G25G26G27G29G31    0.000000000
  24253537.354   127453217.929 7  24253534.948    99314185.73344
  25041987.010   131596527.092 5  25041986.680   102542745.48345
  21736844.825   114227895.978 9  21736841.763    89008731.23747
  24924327.243   130978222.322 6  24924325.366   102060947.36743
  23135758.515   121579236.644 7  23135756.475    94737058.60245
  21267420.347   111761054.860 9  21267417.734    87086531.65849
  24829048.861   130477539.987 6  24829049.990   101670820.39345
  20509196.056   107776561.122 9  20509197.191    83981745.45149
  23671864.348   124396491.895 7  23671865.286    96932337.59446
  22284982.624   117108389.367 9  22284980.546    91253286.69547
  22635758.962   118951703.551 9  22635756.734    92689626.30447
 18 01 01 00 17 00.0000000  0 11G05G09G16G18G20G21G25G26G27G29G31    0.000000000
  24258973.864   127481786.643 7  24258971.254    99336447.08044
  25044311.967   131608744.763 5  25044311.875   102552265.74745
  21722242.953   114151162.663 9  21722239.962    88948939.03547
  24907521.607   130889907.873 5  24907519.350   101992130.92044
  23125574.911   121525721.931 7  23125573.014    94695358.85645
  21263642.511   111741202.174 9  21263639.865    87071062.03849
  24849538.250   130585213.014 6  24849539.487   101754721.42344
  20504349.484   107751092.148 9  20504350.586    83961899.49849
  23653366.813   124299287.043 7  23653367.748    96856593.56546
  22301152.653   117193363.862 9  22301150.672    91319500.56747
  22653207.386   119043395.588 9  22653205.137    92761074.62947
 18 01 01 00 17 30.0000000  0 11G05G09G16G18G20G21G25G26G27G29G31    0.000000000
  24264518.273   127510922.963 7  24264515.707    99359150.74844
  25046738.929   131621498.348 5  25046738.592   102562203.59745
  21707696.437   114074720.291 9  21707693.477    88889373.55547
  24890714.811   130801587.835 5  24890712.489   101923310.08543
  23115479.064   121472668.344 7  23115477.383    94654018.39545
  21259955.677   111721827.591 9  21259952.968    87055964.96649
  24870045.388   130692978.937 6  24870046.617   101838694.86244
  20499589.792   107726079.764 9  20499590.891    83942409.32449
  23634896.472   124202225.344 7  23634897.493    96780961.12046
  22317356.273   117278514.182 9  22317354.283    91385851.44747
  22670712.075   119135383.390 9  22670709.753    92832753.43347
 18 01 01 00 18 00.0000000  0 11G05G09G16G18G20G21G25G26G27G29G31    0.000000000
  24270171.212   127540629.437 7  24270168.718    99382298.66044
  25049268.358   131634790.606 6  25049267.939   102572561.16444
  21693206.325   113998574.246 9  21693203.380    88830038.97447
  24873907.925   130713267.736 5  24873905.791   101854489.22643
  23105472.186   121420081.725 7  23105470.593    94613041.83945
  21256360.596   111702935.183 9  21256357.821    87041243.61249
  24890570.775   130800839.867 7  24890571.952   101922742.35544
  20494917.859   107701528.653 9  20494919.010    83923278.58849
  23616454.366   124105311.268 7  23616455.313    96705443.71146
  22333593.837   117363842.549 9  22333591.794    91452341.06747
  22688273.232   119227667.973 9  22688270.864    92904663.48847
 18 01 01 00 18 30.0000000  0 11G05G09G16G18G20G21G25G26G27G29G31    0.000000000
  24275931.625   127570900.902 7  24275929.310    99405886.82044
  25051899.308   131648616.472 5  25051899.030   102583334.60644
  21678772.132   113922722.196 9  21678769.205    88770933.48847
  24857100.749   130624946.054 5  24857098.890   101785667.14042
  23095553.842   121367959.993 7  23095552.022    94572427.49844
  21252856.569   111684521.209 9  21252853.694    87026895.07149
  24911113.232   130908790.494 7  24911114.229   102006859.76144
  20490333.189   107677435.921 9  20490334.315    83904505.02449
  23598039.718   124008541.549 7  23598040.547    96630038.77345
  22349864.205   117449343.354 9  22349862.113    91518965.05747
  22705889.679   119320242.785 9  22705887.263    92976799.69447
 18 01 01 00 19 00.0000000  0 11G05G09G16G18G20G21G25G26G27G29G31    0.000000000
  24281799.671   127601738.384 7  24281797.567    99429916.00644
  25054631.892   131662976.880 5  25054631.810   102594524.55444
  21664394.583   113847167.931 9  21664391.739    88712060.03647
  24840294.143   130536626.943 6  24840292.321   101716847.04342
  23085724.621   121316307.318 7  23085722.721    94532178.66445
  21249443.803   111666586.922 9  21249440.873    87012920.30749
  24931672.803   131016831.087 7  24931673.560   102091047.23644
  20485836.296   107653804.419 9  20485837.378    83886090.86049
  23579653.034   123911918.730 7  23579653.762    96554748.30846
  22366167.278   117535016.947 9  22366165.229    91585723.67047
  22723561.092   119413106.524 9  22723558.668    93049161.03247
 18 01 01 00 19 30.0000000  0 11G05G09G16G18G20G21G25G26G27G29G31    0.000000000
  24287775.215   127633140.675 7  24287773.212    99454385.30644
  25057466.035   131677870.649 5  25057465.960   102606130.08945
  21650073.989   113771912.734 9  21650071.168    88653419.62747
  24823488.445   130448312.395 5  24823486.455   101648030.46844
  23075985.045   121265125.535 7  23075983.000    94492296.76645
  21246122.131   111649131.488 9  21246119.200    86999318.67849
  24952249.087   131124960.095 7  24952249.663   102175303.63045
  20481427.328   107630634.988 9  20481428.399    83868036.75849
  23561294.467   123815443.523 7  23561295.114    96479572.84146
  22382502.888   117620861.419 9  22382500.842    91652615.45847
  22741286.921   119506256.347 9  22741284.591    93121745.29347
 18 01 01 00 20 00.0000000  0 11G05G09G16G18G20G21G25G26G27G29G31    0.000000000
  24293858.359   127665108.311 7  24293856.405    99479295.16744
  25060401.687   131693298.348 6  25060401.671   102618151.71544
  21635810.954   113696960.012 9  21635808.146    88595014.90347
  24806684.399   130360006.439 6  24806682.399   101579220.62944
  23066335.747   121214418.512 7  23066333.719    94452784.80946
  21242891.914   111632156.755 9  21242889.020    86986091.62049
  24972842.233   131233177.636 7  24972842.778   102259628.99944
  20477106.822   107607930.311 9  20477107.884    83850344.79549
  23542964.547   123719118.232 7  23542964.946    96404514.19746
  22398871.122   117706876.431 9  22398868.913    91719640.14047
  22759066.935   119599691.136 9  22759064.674    93194551.60847
 18 01 01 00 20 30.0000000  0 11G05G09G16G18G20G21G25G26G27G29G31    0.000000000
  24300048.383   127697636.687 7  24300046.258    99504641.96244
  25063438.323   131709255.839 5  25063438.024   102630586.10644
  21621605.231   113622308.515 9  21621602.435    88536844.90447
  24789882.064   130271708.934 5  24789880.363   101510417.39144
  23056776.640   121164185.187 7  23056774.790    94413641.98044
  21239752.608   111615659.695 9  21239749.734    86973236.77949
  24993451.320   131341479.159 7  24993451.745   102344019.79045
  20472874.332   107585688.293 9  20472875.403    83833013.35749
  23524662.614   123622940.689 7  23524662.888    96329570.71345
  22415271.125   117793058.568 9  22415268.959    91786795.03147
  22776900.017   119693404.892 8  22776897.856    93267575.30547
 18 01 01 00 21 00.0000000  0 11G05G09G16G18G20G21G25G26G27G29G31    0.000000000
  24306345.610   127730728.360 7  24306343.390    99530427.68744
  25066576.179   131725745.593 5  25066576.008   102643435.28343
  21607457.808   113547963.578 9  21607455.043    88478913.78647
  24773082.414   130183425.618 5  24773080.486   101441625.17943
  23047308.878   121114431.528 8  23047307.109    94374872.91145
  21236704.841   111599643.671 9  21236701.984    86960756.77049
  25014076.839   131449866.766 7  25014077.373   102428477.65544
  20468730.739   107563913.484 9  20468731.787    83816045.96949
  23506389.494   123526915.132 7  23506389.691    96254745.63845
  22431703.159   117879409.404 9  22431701.032    91854081.37646
  22794786.339   119787398.228 9  22794784.219    93340816.85547
 18 01 01 00 21 30.0000000  0 11G05G09G16G18G20G21G25G26G27G29G31    0.000000000
  24312749.533   127764380.857 7  24312747.220    99556650.40144
  25069814.884   131742764.912 5  25069814.679   102656697.12945
  21593368.724   113473925.033 9  21593365.992    88421221.41047
  24756285.556   130095157.260 5  24756283.660   101372844.62843
  23037932.403   121065157.753 7  23037930.590    94336477.76245
  21233748.173   111584106.401 9  21233745.346    86948649.81249
  25034718.099   131558337.482 7  25034718.795   102513000.34144
  20464675.958   107542605.363 9  20464677.006    83799442.23949
  23488145.097   123431040.797 7  23488145.308    96180038.40346
  22448166.566   117965925.521 9  22448164.604    91921496.51446
  22812725.156   119881667.167 9  22812722.940    93414273.15846
 18 01 01 00 22 00.0000000  0 11G05G09G16G18G20G21G25G26G27G29G31    0.000000000
  24319260.073   127798593.583 7  24319257.622    99583309.66444
  25073154.287   131760313.573 5  25073154.162   102670371.36444
  21579338.473   113400195.662 9  21579335.783    88363769.95347
  24739492.078   130006907.046 5  24739490.330   101304078.22744
  23028647.887   121016366.803 7  23028645.887    94298458.87644
  21230882.790   111569048.872 9  21230880.010    86936916.68149
  25055375.057   131666890.551 7  25055375.835   102597587.12744
  20460710.330   107521765.702 9  20460711.347    83783203.53649
  23469929.814   123335319.215 7  23469930.054    96105450.18446
  22464661.354   118052606.647 9  22464659.605    91989040.22647
  22830716.020   119976209.502 9  22830713.684    93487942.50746
 18 01 01 00 22 30.0000000  0 11G05G09G16G18G20G21G25G26G27G29G31    0.000000000
  24325876.845   127833364.604 7  24325874.379    99610403.96244
  25076594.088   131778389.701 5  25076593.875   102684456.72144
  21565367.345   113326776.869 9  21565364.648    88306560.50748
  24722702.336   129918676.504 6  24722700.648   101235327.14743
  23019455.490   120968060.045 8  23019453.442    94260817.23445
  21228108.578   111554470.381 9  21228105.839    86925556.82449
  25076047.261   131775524.021 6  25076048.219   102682236.57344
  20456833.880   107501394.860 9  20456834.905    83767330.15449
  23451743.678   123239750.641 7  23451743.867    96030981.20245
  22481187.293   118139450.463 9  22481185.422    92056710.73147
  22848758.213   120071021.815 8  22848755.851    93561822.21946
 18 01 01 00 23 00.0000000  0 11G05G09G16G18G20G21G25G26G27G29G31    0.000000000
  24332599.860   127868694.767 7  24332597.484    99637933.96944
  25080134.429   131796994.181 6  25080134.126   102698953.66943
  21551455.917   113253671.923 9  21551453.279    88249595.61147
  24705917.303   129830470.467 6  24705915.345   101166595.18044
  23010355.954   120920241.374 8  23010353.937    94223555.95945
  21225425.790   111540372.300 9  21225423.080    86914571.31549
  25096734.927   131884238.219 7  25096735.814   102766948.98144
  20453047.193   107481495.689 9  20453048.214    83751824.30649
  23433587.112   123144337.573 7  23433587.368    95956633.35846
  22497744.182   118226457.462 9  22497742.179    92124508.37546
  22866851.562   120166103.070 9  22866849.194    93635911.50746
 18 01 01 00 23 30.0000000  0 11G05G09G16G18G20G21G25G26G27G29G31    0.000000000
  24339428.449   127904579.356 7  24339426.107    99665896.00245
  25083774.455   131816122.373 6  25083774.123   102713858.72344
  21537603.928   113180879.451 9  21537601.313    88192874.20247
  24689136.806   129742287.994 6  24689134.501   101097881.57542
  23001348.979   120872909.570 7  23001347.078    94186674.04445
  21222833.707   111526750.812 9  21222830.989    86903957.18349
  25117437.011   131993028.361 7  25117438.012   102851720.49644
  20449349.796   107462065.784 9  20449350.823    83736684.11649
  23415459.686   123049077.578 7  23415460.050    95882404.81246
  22514331.122   118313622.916 9  22514329.120    92192429.47946
  22884994.919   120261447.309 8  22884992.667    93710205.70446
 18 01 01 00 24 00.0000000  0 11G05G09G16G18G20G21G25G26G27G29G31    0.000000000
  24346363.074   127941021.491 7  24346360.967    99694292.46744
  25087514.684   131835777.556 6  25087514.477   102729174.45744
  21523812.539   113108405.280 9  21523809.956    88136400.82648
  24672362.137   129654135.630 6  24672359.739   101029191.38044
  22992435.870   120826071.423 7  22992433.990    94150176.80345
  21220333.189   111513610.485 9  21220330.456    86893717.97149
  25138154.126   132101897.460 7  25138155.182   102936553.58143
  20445742.736   107443110.641 9  20445743.785    83721913.87449
  23397362.401   122953975.998 7  23397362.905    95808299.72146
  22530948.793   118400949.598 9  22530946.929    92260476.21546
  22903188.696   120357056.207 9  22903186.548    93784706.12846
 18 01 01 00 24 30.0000000  0 11G05G09G16G18G20G21G25G26G27G29G31    0.000000000
  24353402.981   127978016.634 7  24353400.883    99723119.83744
  25091354.490   131855955.258 6  25091354.176   102744897.32744
  21510081.509   113036248.150 9  21510078.914    88080174.48548
  24655593.007   129566012.662 6  24655590.676   100960524.21045
  22983616.502   120779725.325 8  22983614.651    94114062.96845
  21217923.460   111500947.375 9  21217920.735    86883850.62549
  25158885.391   132210840.803 7  25158886.336   103021444.48043
  20442225.546   107424627.851 9  20442226.630    83707511.69549
  23379294.763   122859030.202 7  23379295.346    95734316.02746
  22547596.345   118488433.110 9  22547594.511    92328645.16446
  22921431.681   120452923.342 9  22921429.514    93859407.78946
 18 01 01 00 25 00.0000000  0 11G05G09G16G18G20G21G25G26G27G29G31    0.000000000
  24360548.600   128015567.348 7  24360546.494    99752380.12044
  25095294.064   131876658.051 6  25095293.762   102761029.36944
  21496411.841   112964413.383 9  21496409.245    88024199.34148
  24638830.478   129477925.240 6  24638827.846   100891884.65942
  22974891.833   120733876.660 8  22974889.941    94078336.76045
  21215605.215   111488765.061 9  21215602.510    86874357.91149
  25179631.160   132319860.567 6  25179632.019   103106394.98044
  20438799.135   107406622.053 9  20438800.234    83693481.20449
  23361257.642   122764244.605 7  23361258.180    95660457.12946
  22564274.153   118576075.289 9  22564272.160    92396937.76346
  22939723.920   120549049.490 8  22939721.764    93934311.28046
 18 01 01 00 25 30.0000000  0 11G05G09G16G18G20G21G25G26G27G29G31    0.000000000
  24367798.697   128053667.170 7  24367796.447    99782068.31844
  25099332.396   131897879.755 5  25099332.230   102777565.75244
  21482802.853   112892897.749 9  21482800.261    87968472.86848
  24622074.276   129389870.887 6  24622071.420   100823270.83343
  22966261.261   120688522.993 7  22966259.381    94042996.24245
  21213377.442   111477058.151 9  21213374.750    86865235.65349
  25200390.252   132428950.509 7  25200391.100   103191400.12943
  20435462.759   107389089.325 9  20435463.847    83679819.33149
  23343250.175   122669615.204 7  23343250.702    95586719.94346
  22580981.075   118663870.223 9  22580978.890    92465349.38946
  22958064.038   120645427.586 8  22958061.916    94009411.08046
 18 01 01 00 26 00.0000000  0 11G05G09G16G18G20G21G25G26G27G29G31    0.000000000
  24375154.184   128092320.325 7  24375151.786    99812187.65744
  25103470.232   131919624.469 5  25103470.166   102794509.66245
  21469256.023   112821708.764 9  21469253.468    87913000.94048
  24605325.878   129301857.709 6  24605323.417   100754689.12344
  22957726.213   120643671.284 8  22957724.335    94008046.88745
  21211241.126   111465831.765 9  21211238.425    86856487.82749
  25221163.455   132538114.518 6  25221164.368   103276462.98144
  20432217.624   107372036.062 9  20432218.741    83666531.07449
  23325273.670   122575148.289 7  23325274.215    95513109.41146
  22597717.788   118751822.019 9  22597715.527    92533883.22646
  22976452.457   120742059.901 8  22976450.328    94084708.97746
 18 01 01 00 26 30.0000000  0 11G05G09G16G18G20G21G25G26G27G29G31    0.000000000
  24382613.958   128131521.263 7  24382611.632    99842733.84844
  25107706.564   131941886.693 5  25107706.530   102811856.84844
  21455770.916   112750844.003 9  21455768.323    87857781.63248
  24588585.069   129213883.914 6  24588582.687   100686138.11743
  22949286.340   120599319.682 8  22949284.410    93973487.21845
  21209195.467   111455081.719 9  21209192.734    86848111.18149
  25241949.663   132647346.982 6  25241950.706   103361579.20944
  20429063.108   107355458.922 9  20429064.214    83653613.81949
  23307327.381   122480840.375 7  23307327.985    95439622.73646
  22614483.192   118839924.652 9  22614481.048    92602534.60746
  22994887.963   120838939.424 8  22994885.828    94160199.50846
 18 01 01 00 27 00.0000000  0 11G05G09G16G18G20G21G25G26G27G29G31    0.000000000
  24390178.208   128171271.692 7  24390175.908    99873708.20144
  25112041.690   131964668.134 5  25112041.635   102829608.62244
  21442348.368   112680308.073 9  21442345.788    87802818.56948
  24571852.713   129125954.647 6  24571850.197   100617621.84643
  22940942.647   120555473.101 8  22940940.562    93939321.05845
  21207240.959   111444810.619 9  21207238.181    86840107.73049
  25262749.265   132756649.507 7  25262750.390   103446749.99444
  20425999.934   107339361.827 9  20426001.000    83641070.62749
  23289412.081   122386695.248 7  23289412.707    95366262.92746
  22631277.653   118928180.002 8  22631275.550    92671304.99346
  23013370.608   120936066.185 8  23013368.392    94235882.70646
 18 01 01 00 27 30.0000000  0 11G05G09G16G18G20G21G25G26G27G29G31    0.000000000
  24397846.590   128211568.904 7  24397844.250    99905108.66742
  25116475.244   131987966.778 5  25116475.179   102847763.42643
  21428988.641   112610101.955 9  21428986.062    87748112.50648
  24555129.238   129038071.639 6  24555126.416   100549141.54343
  22932695.146   120512132.520 7  22932693.100    93905549.17845
  21205377.346   111435017.109 9  21205374.524    86832476.42849
  25283561.831   132866019.692 7  25283562.901   103531973.52944
  20423028.138   107323744.856 9  20423029.180    83628901.55349
  23271527.820   122292712.931 7  23271528.372    95293029.97146
  22648100.681   119016585.710 8  22648098.554    92740192.54946
  23031899.652   121033436.822 8  23031897.395    94311755.92146
 18 01 01 00 28 00.0000000  0 11G05G09G16G18G20G21G25G26G27G29G31    0.000000000
  24405618.655   128252411.057 7  24405616.376    99936933.69744
  25121006.805   132011780.250 5  25121006.619   102866319.38143
  21415691.754   112540226.372 9  21415689.169    87693664.00248
  24538414.867   128950236.573 6  24538411.818   100480698.60542
  22924544.161   120469298.892 8  22924542.257    93872172.35545
  21203604.327   111425699.845 9  21203601.512    86825216.23649
  25304386.741   132975455.304 7  25304387.881   103617248.00945
  20420147.717   107308608.003 9  20420148.731    83617106.59749
  23253674.563   122198893.267 7  23253675.019    95219923.77346
  22664951.901   119105139.583 8  22664949.865    92809195.52546
  23050474.343   121131047.329 8  23050472.107    94387816.04646
 18 01 01 00 28 30.0000000  0 11G05G09G16G18G20G21G25G26G27G29G31    0.000000000
  24413494.309   128293797.843 7  24413491.948    99969183.16643
  25125636.440   132036109.198 4  25125636.458   102885277.00343
  21402458.527   112470685.394 9  21402455.941    87639476.23248
  24521710.235   128862453.947 6  24521707.195   100412296.60344
  22916490.465   120426975.697 8  22916488.423    93839193.25745
  21201922.201   111416860.253 9  21201919.392    86818328.25349
  25325224.125   133084956.716 7  25325225.367   103702573.80544
  20417359.186   107293954.092 9  20417360.184    83605687.96449
  23235852.758   122105239.030 7  23235853.029    95146946.46346
  22681831.514   119193841.853 9  22681829.442    92878314.17546
  23069094.563   121228897.105 8  23069092.310    94464062.62246
 18 01 01 00 29 00.0000000  0 11G05G09G16G18G20G21G25G26G27G29G31    0.000000000
  24421473.047   128335727.224 7  24421470.890   100001855.42844
  25130363.691   132060950.739 5  25130363.803   102904634.04044
  21389288.981   112401478.915 9  21389286.390    87585549.10348
  24505015.809   128774724.988 6  24505013.049   100343936.38543
  22908534.003   120385164.058 8  22908531.938    93806612.76945
  21200330.723   111408496.888 9  21200327.870    86811811.35149
  25346073.469   133194521.162 6  25346074.605   103787948.71144
  20414662.450   107279782.561 9  20414663.447    83594645.21149
  23218062.326   122011749.576 7  23218062.500    95074097.53646
  22698738.732   119282690.020 8  22698736.758    92947546.50146
  23087759.441   121326981.711 8  23087757.156    94540492.17946
 18 01 01 00 29 30.0000000  0 11G05G09G16G18G20G21G25G26G27G29G31    0.000000000
  24429555.150   128378198.579 7  24429552.914   100034950.02443
  25135188.479   132086304.430 4  25135188.326   102924390.1894 
  21376183.677   112332609.944 9  21376181.043    87531884.96548
  24488332.343   128687052.906 6  24488329.835   100275620.48443
  22900675.167   120343866.381 8  22900673.263    93774432.78946
  21198829.858   111400609.654 9  21198826.944    86805665.46249
  25366934.744   133304147.966 6  25366935.926   103873372.21244
  20412057.827   107266095.098 9  20412058.803    83583979.64849
  23200303.520   121918426.557 7  23200303.702    95001378.32646
  22715673.508   119371683.533 8  22715671.707    93016892.05246
  23106468.610   121425299.218 8  23106466.366    94617103.20946
 18 01 01 00 30 00.0000000  0 11G05G09G16G18G20G21G25G26G27G29G31    0.000000000
  24437740.259   128421211.646 6  24437737.833   100068466.67745
  25140110.509   132112170.326 4  25140110.130   102944545.39245
  21363143.099   112264081.428 9  21363140.508    87478486.12648
  24471660.301   128599441.452 6  24471657.844   100207351.78643
  22892914.678   120303085.363 8  22892912.807    93742655.39845
  21197419.825   111393199.825 9  21197416.884    86799891.57849
  25387807.883   133413837.095 6  25387809.038   103958844.21544
  20409545.742   107252893.919 9  20409546.699    83573693.01049
  23182576.855   121825272.136 7  23182577.080    94928790.49046
  22732636.166   119460822.593 9  22732634.356    93086351.03846
  23125221.866   121523848.010 9  23125219.529    94693894.48446
 18 01 01 00 30 30.0000000  0 11G05G09G16G18G20G21G25G26G27G29G31    0.000000000
  24446027.447   128464760.770 7  24446024.822   100102401.08744
  25145128.936   132138542.914 5  25145128.535   102965095.45943
  21350166.981   112195891.467 9  21350164.424    87425351.09148
  24454999.583   128511889.050 6  24454997.228   100139129.16342
  22885252.446   120262819.825 8  22885250.438    93711279.65645
  21196099.757   111386262.843 9  21196096.827    86794486.14249
  25408691.902   133523583.304 6  25408693.155   104044360.77844
  20407125.627   107240176.118 9  20407126.596    83563783.03349
  23164881.671   121732283.372 7  23164882.053    94856331.76746
  22749625.512   119550101.805 8  22749623.666    93155919.23346
  23144017.999   121622621.803 8  23144015.652    94770861.07046
 18 01 01 00 31 00.0000000  0 11G05G09G16G18G20G21G25G26G27G29G31    0.000000000
  24454416.680   128508846.159 6  24454414.222   100136753.34544
  25150244.016   132165422.358 4  25150242.505   102986037.4164 
  21337255.916   112128043.253 9  21337253.351    87372482.35348
  24438350.978   128424399.831 6  24438348.677   100070955.7404 
  22877688.865   120223072.604 8  22877686.804    93680307.82646
  21194869.853   111379799.662 9  21194866.938    86789449.90849
  25429586.812   133633386.628 6  25429588.017   104129921.82544
  20404797.930   107227943.996 9  20404798.919    83554251.50749
  23147218.468   121639462.522 7  23147218.919    94784003.85146
  22766641.282   119639520.919 8  22766639.538    93225596.43046
  23162856.600   121721618.979 8  23162854.239    94848001.73446
 18 01 01 00 31 30.0000000  0 11G05G09G16G18G20G21G25G26G27G29G31    0.000000000
  24462908.326   128553471.189 6  24462906.112   100171526.06343
  25155456.250   132192812.438 4  25155454.637   103007382.41343
  21324411.230   112060543.948 9  21324408.643    87319885.48748
  24421715.944   128336981.706 6  24421713.514   100002837.70743
  22870225.090   120183850.360 8  22870223.012    93649745.04045
  21193731.109   111373815.558 9  21193728.211    86784786.97349
  25450493.316   133743250.917 6  25450494.372   104215530.37544
  20402563.800   107216203.615 9  20402564.803    83545103.15549
  23129588.344   121546815.589 7  23129588.794    94711811.45546
  22783684.535   119729084.282 8  22783682.814    93295386.05246
  23181738.062   121820842.203 8  23181735.790    94925318.52546
 18 01 01 00 32 00.0000000  0 11G05G09G16G18G20G21G25G26G27G29G31    0.000000000
  24471501.282   128598628.247 6  24471499.242   100206713.35444
  25160764.120   132220705.002 4  25160762.436   103029116.78841
  21311631.950   111993388.430 9  21311629.439    87267556.52248
  24405093.591   128249630.622 6  24405091.083    99934771.95844
  22862860.509   120145149.072 8  22862858.234    93619588.21345
  21192682.155   111368303.477 9  21192679.303    86780491.85349
  25471409.932   133853168.098 7  25471410.857   104301180.09944
  20400422.147   107204949.196 9  20400423.161    83536333.47749
  23111990.182   121454336.843 7  23111990.716    94639750.08946
  22800753.855   119818784.282 8  22800752.223    93365282.12246
  23200660.721   121920281.886 8  23200658.499    95002803.97846
 18 01 01 00 32 30.0000000  0 10G05G16G18G20G21G25G26G27G29G31       0.000000000
  24480196.526   128644321.888 6  24480194.377   100242318.84843
  21298919.694   111926585.128 9  21298917.178    87215502.00648
  24388485.672   128162355.512 6  24388482.947    99866765.32743
  22855596.573   120106976.580 8  22855594.198    93589843.43046
  21191724.021   111363268.750 9  21191721.235    86776568.69849
  25492337.528   133963143.168 6  25492338.295   104386875.00644
  20398374.347   107194187.954 9  20398375.348    83527948.08249
  23094425.431   121362033.535 7  23094425.922    94567825.46446
  22817850.130   119908625.735 8  22817848.578    93435288.43146
  23219625.253   122019941.487 8  23219623.048    95080460.80346
 18 01 01 00 33 00.0000000  0 10G05G16G18G20G21G25G26G27G29G31       0.000000000
  24488992.315   128690544.901 6  24488990.463   100278336.81443
  21286273.828   111860130.617 9  21286271.249    87163719.26548
  24371891.573   128075153.498 6  24371888.993    99798815.69444
  22848432.384   120069328.951 8  22848430.070    93560507.63546
  21190855.631   111358705.531 9  21190852.896    86773012.95249
  25513274.790   134073169.379 6  25513275.791   104472609.71543
  20396419.523   107183915.298 9  20396420.539    83519943.41749
  23076893.170   121269901.119 7  23076893.706    94496033.98346
  22834972.073   119998601.757 8  22834970.509    93505399.59646
  23238630.194   122119813.365 8  23238628.042    95158283.05346
 18 01 01 00 33 30.0000000  0 10G05G16G18G20G21G25G26G27G29G31       0.000000000
  24497888.680   128737296.219 6  24497886.921   100314766.35142
  21273694.703   111794026.759 9  21273692.082    87112209.76248
  24355311.805   127988027.242 6  24355309.731    99730925.14641
  22841368.474   120032208.343 8  22841366.250    93531582.51546
  21190077.033   111354614.040 9  21190074.305    86769824.77949
  25534221.594   134183245.358 6  25534222.766   104558383.20344
  20394557.855   107174132.230 9  20394558.893    83512320.24649
  23059393.629   121177940.504 7  23059394.169    94424376.40046
  22852119.464   120088711.325 8  22852117.746    93575614.82446
  23257675.055   122219894.430 8  23257672.736    95236268.30446
 18 01 01 00 34 00.0000000  0 10G05G16G18G20G21G25G26G27G29G31       0.000000000
  24506886.461   128784580.010 6  24506884.774   100351610.9004 
  21261183.882   111728281.645 9  21261181.198    87060979.80448
  24338748.074   127900985.238 6  24338746.095    99663100.18743
  22834406.396   119995622.492 8  22834404.151    93503074.06045
  21189389.162   111350999.398 9  21189386.437    86767008.18049
  25555178.710   134293375.884 6  25555179.811   104644199.23744
  20392790.686   107164845.682 9  20392791.722    83505083.97149
  23041928.101   121086158.733 7  23041928.647    94352858.16846
  22869293.137   120178959.303 9  22869291.270    93645937.90746
  23276760.312   122320187.974 8  23276757.947    95314419.11446
 18 01 01 00 34 30.0000000  0 10G05G16G18G20G21G25G26G27G29G31       0.000000000
  24515984.044   128832387.384 6  24515982.224   100388863.45344
  21248740.249   111662889.712 9  21248737.431    87010025.04948
  24322199.838   127814023.329 6  24322197.918    99595337.61744
  22827545.086   119959565.777 8  22827542.956    93474977.95245
  21188790.533   111347853.731 9  21188787.800    86764557.02449
  25576144.506   134403552.442 6  25576145.798   104730051.09344
  20391116.779   107156049.299 9  20391117.841    83498229.64649
  23024495.390   120994549.493 7  23024495.881    94281474.35946
  22886491.554   120269337.510 8  22886489.628    93716362.45146
  23295884.081   122420684.168 8  23295881.727    95392727.83046
 18 01 01 00 35 00.0000000  0 10G05G16G18G20G21G25G26G27G29G31       0.000000000
  24525181.654   128880720.698 6  24525179.680   100426525.77044
  21236364.787   111597856.375 9  21236361.970    86959349.71948
  24305667.994   127727147.584 7  24305665.965    99527642.27444
  22820785.516   119924043.966 8  22820783.567    93447298.64645
  21188281.867   111345180.716 9  21188279.095    86762474.16749
  25597119.579   134513777.318 7  25597120.832   104815940.62344
  20389536.996   107147747.575 9  20389538.069    83491760.77049
  23007096.486   120903117.456 8  23007096.895    94210228.64646
  22903715.177   120359848.079 8  22903713.338    93786890.15546
  23315046.577   122521383.926 8  23315044.167    95471195.16346
 18 01 01 00 35 30.0000000  0 10G05G16G18G20G21G25G26G27G29G31       0.000000000
  24534478.809   128929576.443 6  24534476.549   100464595.18643
  21224057.597   111533181.932 9  21224054.845    86908954.04748
  24289152.773   127640358.684 6  24289150.508    99460014.57644
  22814127.787   119889056.845 8  22814125.705    93420035.97846
  21187862.771   111342978.169 9  21187859.916    86760757.89649
  25618103.268   134624047.252 6  25618104.466   104901865.22144
  20388051.139   107139939.420 9  20388052.210    83485676.49049
  22989731.117   120811861.413 8  22989731.495    94139120.05447
  22920963.370   120450488.153 8  22920961.594    93857518.76546
  23334246.957   122622282.639 8  23334244.421    95549817.54046
 18 01 01 00 36 00.0000000  0 10G05G16G18G20G21G25G26G27G29G31       0.000000000
  24543875.340   128978954.937 6  24543872.488   100503071.88444
  21211819.378   111468869.811 9  21211816.670    86858840.70848
  24272654.933   127553661.272 6  24272652.560    99392458.10941
  22807572.407   119854607.568 8  22807570.036    93393192.39545
  21187533.399   111341247.154 9  21187530.486    86759409.06649
  25639095.674   134734362.792 6  25639096.778   104987825.41244
  20386659.693   107132627.420 9  20386660.783    83479978.83049
  22972399.755   120720784.139 8  22972400.111    94068150.76546
  22938236.422   120541258.208 8  22938234.635    93928248.65946
  23353485.112   122723379.450 8  23353482.413    95628594.28346
 18 01 01 00 36 30.0000000  0 10G05G16G18G20G21G25G26G27G29G31       0.000000000
  24553370.619   129028852.939 6  24553367.561   100541953.49044
  21199650.382   111404921.006 9  21199647.640    86809010.45948
  24256174.653   127467055.955 6  24256172.209    99324973.46844
  22801119.407   119820697.078 8  22801117.029    93366768.65945
  21187293.373   111339985.799 9  21187290.459    86758426.19649
  25660096.226   134844721.445 6  25660097.146   105073819.22043
  20385362.644   107125811.354 9  20385363.750    83474667.60349
  22955102.402   120629885.562 8  22955102.724    93997320.72646
  22955533.741   120632155.686 8  22955531.790    93999077.86346
  23372760.174   122824670.449 8  23372757.342    95707522.33846
 18 01 01 00 37 00.0000000  0 10G05G16G18G20G21G25G26G27G29G31       0.000000000
  24562965.917   129079276.341 5  24562963.445   100581244.44944
  21187552.194   111341344.326 9  21187549.375    86759470.18848
  24239713.819   127380553.232 6  24239711.436    99257568.75244
  22794770.510   119787333.917 8  22794768.194    93340771.41445
  21187143.707   111339199.303 9  21187140.822    86757813.35349
  25681106.046   134955128.971 6  25681106.918   105159851.03843
  20384161.434   107119498.908 9  20384162.538    83469748.81049
  22937840.435   120539173.389 8  22937840.810    93926635.92847
  22972856.454   120723186.881 8  22972854.486    94070011.23346
  23392072.945   122926159.829 8  23392070.165    95786604.96346
 18 01 01 00 37 30.0000000  0 10G05G16G18G20G21G25G26G27G29G31       0.000000000
  24572658.507   129130211.719 5  24572656.072   100620934.30244
  21175522.922   111278130.141 9  21175520.049    86710212.38248
  24223270.615   127294144.196 6  24223268.359    99190237.08044
  22788523.828   119754507.936 8  22788521.508    93315192.75745
  21187082.498   111338877.591 9  21187079.637    86757562.67849
  25702122.645   135065572.359 6  25702123.432   105245910.83543
  20383054.018   107113679.390 9  20383055.121    83465214.12149
  22920611.907   120448637.181 8  22920612.431    93856088.27547
  22990202.043   120814338.680 8  22990200.281    94141038.59146
  23411420.758   123027833.188 8  23411418.082    95865830.95146
 18 01 01 00 38 00.0000000  0 10G05G16G18G20G21G25G26G27G29G31       0.000000000
  24582448.443   129181658.595 5  24582446.161   100661022.80045
  21163563.196   111215281.577 9  21163560.332    86661239.47448
  24206846.062   127207832.456 7  24206843.880    99122981.13744
  22782379.900   119722222.328 8  22782377.681    93290035.16246
  21187109.840   111339021.120 9  21187106.971    86757674.52249
  25723146.210   135176051.722 5  25723147.115   105331998.67644
  20382040.797   107108354.874 9  20382041.916    83461065.13749
  22903417.310   120358279.076 8  22903417.830    93785679.37746
  23007570.704   120905611.662 8  23007568.990    94212160.38146
